[{"id": "9WSh050KKnLktbzE3X5KBA", "alias": "jefferson-vineyards-charlottesville", "name": "Jefferson Vineyards", "image_url": "https://s3-media4.fl.yelpcdn.com/bphoto/MGBDPmDIc-_ovydYphaXjQ/o.jpg", "is_closed": false, "url": "https://www.yelp.com/biz/jefferson-vineyards-charlottesville?adjust_creative=-VX0SUemRdQ6TmsA9_WLDg&utm_campaign=yelp_api_v3&utm_medium=api_v3_business_search&utm_source=-VX0SUemRdQ6TmsA9_WLDg", "review_count": 237, "categories": [{"alias": "wineries", "title": "Wineries"}], "rating": 4.0, "coordinates": {"latitude": 37.990044, "longitude": -78.443643}, "transactions": [], "price": "$$", "location": {"address1": "1353 Thomas Jefferson Pkwy", "address2": null, "address3": "", "city": "Charlottesville", "zip_code": "22902", "country": "US", "state": "VA", "display_address": ["1353 Thomas Jefferson Pkwy", "Charlottesville, VA 22902"]}, "phone": "+14349773042", "display_phone": "(434) 977-3042", "distance": 6630.9503992019345}, {"id": "s6pzoTZDjQ4h_SY_FpP2SQ", "alias": "gabriele-rausse-charlottesville", "name": "Gabriele Rausse", "image_url": "https://s3-media1.fl.yelpcdn.com/bphoto/HS8EsXkZv8Z8dMe7M_oCDg/o.jpg", "is_closed": false, "url": "https://www.yelp.com/biz/gabriele-rausse-charlottesville?adjust_creative=-VX0SUemRdQ6TmsA9_WLDg&utm_campaign=yelp_api_v3&utm_medium=api_v3_business_search&utm_source=-VX0SUemRdQ6TmsA9_WLDg", "review_count": 77, "categories": [{"alias": "wineries", "title": "Wineries"}], "rating": 4.5, "coordinates": {"latitude": 37.9460038, "longitude": -78.48322713156878}, "transactions": [], "price": "$$", "location": {"address1": "3247 Carters Mountain Rd", "address2": "", "address3": "", "city": "Charlottesville", "zip_code": "22902", "country": "US", "state": "VA", "display_address": ["3247 Carters Mountain Rd", "Charlottesville, VA 22902"]}, "phone": "+14349811677", "display_phone": "(434) 981-1677", "distance": 10995.036917446925}, {"id": "Z9djBo-FcFChFjE7sfXaIw", "alias": "pippin-hill-farm-and-vineyards-north-garden", "name": "Pippin Hill Farm & Vineyards", "image_url": "https://s3-media2.fl.yelpcdn.com/bphoto/lc2NOqm4sM3ey0uha8BCcA/o.jpg", "is_closed": false, "url": "https://www.yelp.com/biz/pippin-hill-farm-and-vineyards-north-garden?adjust_creative=-VX0SUemRdQ6TmsA9_WLDg&utm_campaign=yelp_api_v3&utm_medium=api_v3_business_search&utm_source=-VX0SUemRdQ6TmsA9_WLDg", "review_count": 326, "categories": [{"alias": "venues", "title": "Venues & Event Spaces"}, {"alias": "wineries", "title": "Wineries"}], "rating": 4.0, "coordinates": {"latitude": 37.9577015, "longitude": -78.661157}, "transactions": ["pickup", "delivery"], "price": "$$", "location": {"address1": "5022 Plank Rd", "address2": "", "address3": "", "city": "North Garden", "zip_code": "22959", "country": "US", "state": "VA", "display_address": ["5022 Plank Rd", "North Garden, VA 22959"]}, "phone": "+14342028063", "display_phone": "(434) 202-8063", "distance": 18452.142160129046}, {"id": "8H_FKdb3PRx1RLoAjnE86w", "alias": "merrie-mill-farm-and-vineyard-keswick", "name": "Merrie Mill Farm & Vineyard", "image_url": "https://s3-media2.fl.yelpcdn.com/bphoto/SOP99os8toBDRWKJcy8Z7A/o.jpg", "is_closed": false, "url": "https://www.yelp.com/biz/merrie-mill-farm-and-vineyard-keswick?adjust_creative=-VX0SUemRdQ6TmsA9_WLDg&utm_campaign=yelp_api_v3&utm_medium=api_v3_business_search&utm_source=-VX0SUemRdQ6TmsA9_WLDg", "review_count": 26, "categories": [{"alias": "winetastingroom", "title": "Wine Tasting Room"}], "rating": 4.5, "coordinates": {"latitude": 38.0542984, "longitude": -78.2956807}, "transactions": [], "location": {"address1": "594 Merrie Mill Farm", "address2": "", "address3": null, "city": "Keswick", "zip_code": "22947", "country": "US", "state": "VA", "display_address": ["594 Merrie Mill Farm", "Keswick, VA 22947"]}, "phone": "+14343653006", "display_phone": "(434) 365-3006", "distance": 16223.671596185242}, {"id": "gXNjZS7yl2MRq9BY63v8Tg", "alias": "glass-house-winery-free-union", "name": "Glass House Winery", "image_url": "https://s3-media2.fl.yelpcdn.com/bphoto/MHRI2-_ekOWhc2AOFv7OrQ/o.jpg", "is_closed": false, "url": "https://www.yelp.com/biz/glass-house-winery-free-union?adjust_creative=-VX0SUemRdQ6TmsA9_WLDg&utm_campaign=yelp_api_v3&utm_medium=api_v3_business_search&utm_source=-VX0SUemRdQ6TmsA9_WLDg", "review_count": 87, "categories": [{"alias": "wineries", "title": "Wineries"}, {"alias": "venues", "title": "Venues & Event Spaces"}, {"alias": "bedbreakfast", "title": "Bed & Breakfast"}], "rating": 4.5, "coordinates": {"latitude": 38.2025939, "longitude": -78.5791314}, "transactions": [], "price": "$$", "location": {"address1": "5898 Free Union Rd", "address2": "", "address3": "", "city": "Free Union", "zip_code": "22940", "country": "US", "state": "VA", "display_address": ["5898 Free Union Rd", "Free Union, VA 22940"]}, "phone": "+14349750094", "display_phone": "(434) 975-0094", "distance": 19646.202481905748}, {"id": "nmwkIAYmECFWa-P56cfGyw", "alias": "barboursville-vineyards-barboursville", "name": "Barboursville Vineyards", "image_url": "https://s3-media2.fl.yelpcdn.com/bphoto/vBSVMJO5EudEHnmggL7G-g/o.jpg", "is_closed": false, "url": "https://www.yelp.com/biz/barboursville-vineyards-barboursville?adjust_creative=-VX0SUemRdQ6TmsA9_WLDg&utm_campaign=yelp_api_v3&utm_medium=api_v3_business_search&utm_source=-VX0SUemRdQ6TmsA9_WLDg", "review_count": 298, "categories": [{"alias": "wineries", "title": "Wineries"}], "rating": 4.0, "coordinates": {"latitude": 38.15959400645092, "longitude": -78.27708420207776}, "transactions": [], "price": "$$", "location": {"address1": "17655 Winery Rd", "address2": "", "address3": "", "city": "Barboursville", "zip_code": "22923", "country": "US", "state": "VA", "display_address": ["17655 Winery Rd", "Barboursville, VA 22923"]}, "phone": "+15408323824", "display_phone": "(540) 832-3824", "distance": 21731.621700937765}, {"id": "vBnEgr7KZw8nd1wCfnF89Q", "alias": "blenheim-vineyards-charlottesville", "name": "Blenheim Vineyards", "image_url": "https://s3-media1.fl.yelpcdn.com/bphoto/xemuECA81AVFyjzTbQZXCA/o.jpg", "is_closed": false, "url": "https://www.yelp.com/biz/blenheim-vineyards-charlottesville?adjust_creative=-VX0SUemRdQ6TmsA9_WLDg&utm_campaign=yelp_api_v3&utm_medium=api_v3_business_search&utm_source=-VX0SUemRdQ6TmsA9_WLDg", "review_count": 240, "categories": [{"alias": "wineries", "title": "Wineries"}, {"alias": "venues", "title": "Venues & Event Spaces"}], "rating": 4.0, "coordinates": {"latitude": 37.9322249, "longitude": -78.5000479}, "transactions": [], "price": "$$", "location": {"address1": "31 Blenheim Farm", "address2": "", "address3": "", "city": "Charlottesville", "zip_code": "22902", "country": "US", "state": "VA", "display_address": ["31 Blenheim Farm", "Charlottesville, VA 22902"]}, "phone": "+14342935366", "display_phone": "(434) 293-5366", "distance": 12711.50090467162}, {"id": "CtkwrnW_PDRhO240ElSIqQ", "alias": "wish-wish-wine-tours-charlottesville-2", "name": "Wish Wish Wine Tours", "image_url": "https://s3-media1.fl.yelpcdn.com/bphoto/tK1LiU3a1nKKJEIsPC82rA/o.jpg", "is_closed": false, "url": "https://www.yelp.com/biz/wish-wish-wine-tours-charlottesville-2?adjust_creative=-VX0SUemRdQ6TmsA9_WLDg&utm_campaign=yelp_api_v3&utm_medium=api_v3_business_search&utm_source=-VX0SUemRdQ6TmsA9_WLDg", "review_count": 125, "categories": [{"alias": "winetours", "title": "Wine Tours"}], "rating": 5.0, "coordinates": {"latitude": 38.0110704, "longitude": -78.4983687}, "transactions": [], "location": {"address1": "435 Merchant Walk Sq", "address2": "Ste 300  593", "address3": "", "city": "Charlottesville", "zip_code": "22902", "country": "US", "state": "VA", "display_address": ["435 Merchant Walk Sq", "Ste 300  593", "Charlottesville, VA 22902"]}, "phone": "+14342021615", "display_phone": "(434) 202-1615", "distance": 4150.11614990717}, {"id": "VumgI9hiSs_NMsvn04ImZA", "alias": "carter-mountain-orchard-charlottesville", "name": "Carter Mountain Orchard", "image_url": "https://s3-media2.fl.yelpcdn.com/bphoto/PamFXbWWmP7uTu5mHEjGaA/o.jpg", "is_closed": false, "url": "https://www.yelp.com/biz/carter-mountain-orchard-charlottesville?adjust_creative=-VX0SUemRdQ6TmsA9_WLDg&utm_campaign=yelp_api_v3&utm_medium=api_v3_business_search&utm_source=-VX0SUemRdQ6TmsA9_WLDg", "review_count": 379, "categories": [{"alias": "pickyourown", "title": "Pick Your Own Farms"}, {"alias": "cideries", "title": "Cideries"}, {"alias": "winetastingroom", "title": "Wine Tasting Room"}], "rating": 4.0, "coordinates": {"latitude": 37.9896, "longitude": -78.47364}, "transactions": [], "price": "$", "location": {"address1": "1435 Carters Mountain Trl", "address2": "", "address3": "", "city": "Charlottesville", "zip_code": "22902", "country": "US", "state": "VA", "display_address": ["1435 Carters Mountain Trl", "Charlottesville, VA 22902"]}, "phone": "+14349771833", "display_phone": "(434) 977-1833", "distance": 5967.364459069115}, {"id": "AraBHPTG6tCUQdlS03N8wQ", "alias": "keswick-vineyards-keswick", "name": "Keswick Vineyards", "image_url": "https://s3-media3.fl.yelpcdn.com/bphoto/l8kSKHpxhuYZyHF_LP5dow/o.jpg", "is_closed": false, "url": "https://www.yelp.com/biz/keswick-vineyards-keswick?adjust_creative=-VX0SUemRdQ6TmsA9_WLDg&utm_campaign=yelp_api_v3&utm_medium=api_v3_business_search&utm_source=-VX0SUemRdQ6TmsA9_WLDg", "review_count": 114, "categories": [{"alias": "wineries", "title": "Wineries"}, {"alias": "venues", "title": "Venues & Event Spaces"}], "rating": 4.0, "coordinates": {"latitude": 38.0780278133501, "longitude": -78.2912349700928}, "transactions": [], "price": "$$", "location": {"address1": "1575 Keswick Winery Dr", "address2": "", "address3": "", "city": "Keswick", "zip_code": "22947", "country": "US", "state": "VA", "display_address": ["1575 Keswick Winery Dr", "Keswick, VA 22947"]}, "phone": "+14342443341", "display_phone": "(434) 244-3341", "distance": 16770.888326868397}, {"id": "zw3gKnw5YUU60NmN23cHnw", "alias": "potters-craft-cider-charlottesville", "name": "Potter's Craft Cider", "image_url": "https://s3-media2.fl.yelpcdn.com/bphoto/z1nLq03KjMKNMIJJAhbIrQ/o.jpg", "is_closed": false, "url": "https://www.yelp.com/biz/potters-craft-cider-charlottesville?adjust_creative=-VX0SUemRdQ6TmsA9_WLDg&utm_campaign=yelp_api_v3&utm_medium=api_v3_business_search&utm_source=-VX0SUemRdQ6TmsA9_WLDg", "review_count": 12, "categories": [{"alias": "cideries", "title": "Cideries"}], "rating": 4.5, "coordinates": {"latitude": 38.02725, "longitude": -78.47682}, "transactions": [], "location": {"address1": "209 Monticello Rd", "address2": null, "address3": "", "city": "Charlottesville", "zip_code": "22902", "country": "US", "state": "VA", "display_address": ["209 Monticello Rd", "Charlottesville, VA 22902"]}, "phone": "+14349640271", "display_phone": "(434) 964-0271", "distance": 1956.2317753424068}, {"id": "b2Bw7T6TAyehJVzkcRXOoA", "alias": "trump-winery-charlottesville-4", "name": "Trump Winery", "image_url": "https://s3-media3.fl.yelpcdn.com/bphoto/5zhXICCl2wvpHUB4GDpaHw/o.jpg", "is_closed": false, "url": "https://www.yelp.com/biz/trump-winery-charlottesville-4?adjust_creative=-VX0SUemRdQ6TmsA9_WLDg&utm_campaign=yelp_api_v3&utm_medium=api_v3_business_search&utm_source=-VX0SUemRdQ6TmsA9_WLDg", "review_count": 308, "categories": [{"alias": "wineries", "title": "Wineries"}], "rating": 4.0, "coordinates": {"latitude": 37.94642, "longitude": -78.5051}, "transactions": [], "price": "$$", "location": {"address1": "385 Albemarle House Dr", "address2": "", "address3": "", "city": "Charlottesville", "zip_code": "22902", "country": "US", "state": "VA", "display_address": ["385 Albemarle House Dr", "Charlottesville, VA 22902"]}, "phone": "+14342669909", "display_phone": "(434) 266-9909", "distance": 11233.849476356223}, {"id": "fcesTYabawpofUyhC46uhg", "alias": "meriwether-springs-vineyard-charlottesville-3", "name": "Meriwether Springs Vineyard", "image_url": "https://s3-media3.fl.yelpcdn.com/bphoto/lAx2SRo3tmPVeEdl81F9wA/o.jpg", "is_closed": false, "url": "https://www.yelp.com/biz/meriwether-springs-vineyard-charlottesville-3?adjust_creative=-VX0SUemRdQ6TmsA9_WLDg&utm_campaign=yelp_api_v3&utm_medium=api_v3_business_search&utm_source=-VX0SUemRdQ6TmsA9_WLDg", "review_count": 13, "categories": [{"alias": "venues", "title": "Venues & Event Spaces"}, {"alias": "winetastingroom", "title": "Wine Tasting Room"}, {"alias": "beergardens", "title": "Beer Gardens"}], "rating": 4.5, "coordinates": {"latitude": 38.06736, "longitude": -78.59546}, "transactions": [], "price": "$$", "location": {"address1": "1040 Owensville Rd", "address2": null, "address3": "", "city": "Charlottesville", "zip_code": "22901", "country": "US", "state": "VA", "display_address": ["1040 Owensville Rd", "Charlottesville, VA 22901"]}, "phone": "+14349647955", "display_phone": "(434) 964-7955", "distance": 10236.237588880665}, {"id": "DOmwKrhsQZqGc7qytV-aBQ", "alias": "stinson-vineyards-crozet", "name": "Stinson Vineyards", "image_url": "https://s3-media1.fl.yelpcdn.com/bphoto/KfaI3uDW1-E3hJd95v-EaA/o.jpg", "is_closed": false, "url": "https://www.yelp.com/biz/stinson-vineyards-crozet?adjust_creative=-VX0SUemRdQ6TmsA9_WLDg&utm_campaign=yelp_api_v3&utm_medium=api_v3_business_search&utm_source=-VX0SUemRdQ6TmsA9_WLDg", "review_count": 71, "categories": [{"alias": "wineries", "title": "Wineries"}], "rating": 4.5, "coordinates": {"latitude": 38.119653, "longitude": -78.66473}, "transactions": [], "price": "$$", "location": {"address1": "4744 Sugar Hollow Rd", "address2": "", "address3": "", "city": "Crozet", "zip_code": "22932", "country": "US", "state": "VA", "display_address": ["4744 Sugar Hollow Rd", "Crozet, VA 22932"]}, "phone": "+14348237300", "display_phone": "(434) 823-7300", "distance": 18333.797831280608}, {"id": "LIiPvi3_F44Dw4AIpro21w", "alias": "wisdom-oak-winery-north-garden", "name": "Wisdom Oak Winery", "image_url": "https://s3-media4.fl.yelpcdn.com/bphoto/htGm417O4quaWilgsI75CA/o.jpg", "is_closed": false, "url": "https://www.yelp.com/biz/wisdom-oak-winery-north-garden?adjust_creative=-VX0SUemRdQ6TmsA9_WLDg&utm_campaign=yelp_api_v3&utm_medium=api_v3_business_search&utm_source=-VX0SUemRdQ6TmsA9_WLDg", "review_count": 65, "categories": [{"alias": "wineries", "title": "Wineries"}, {"alias": "venues", "title": "Venues & Event Spaces"}], "rating": 4.5, "coordinates": {"latitude": 37.93952, "longitude": -78.61334}, "transactions": [], "price": "$$", "location": {"address1": "3613 Walnut Branch Ln", "address2": "", "address3": null, "city": "North Garden", "zip_code": "22959", "country": "US", "state": "VA", "display_address": ["3613 Walnut Branch Ln", "North Garden, VA 22959"]}, "phone": "+14349844272", "display_phone": "(434) 984-4272", "distance": 16795.95603341577}, {"id": "_gQGt7MQzZVgHVyolrz8uA", "alias": "michie-tavern-charlottesville", "name": "Michie Tavern", "image_url": "https://s3-media2.fl.yelpcdn.com/bphoto/yN4uu744ImWERZLScor6kQ/o.jpg", "is_closed": false, "url": "https://www.yelp.com/biz/michie-tavern-charlottesville?adjust_creative=-VX0SUemRdQ6TmsA9_WLDg&utm_campaign=yelp_api_v3&utm_medium=api_v3_business_search&utm_source=-VX0SUemRdQ6TmsA9_WLDg", "review_count": 295, "categories": [{"alias": "landmarks", "title": "Landmarks & Historical Buildings"}, {"alias": "tradamerican", "title": "American (Traditional)"}, {"alias": "tours", "title": "Tours"}], "rating": 4.0, "coordinates": {"latitude": 38.009304, "longitude": -78.4639206}, "transactions": ["delivery"], "price": "$$", "location": {"address1": "683 Thomas Jefferson Pkwy", "address2": "", "address3": "", "city": "Charlottesville", "zip_code": "22902", "country": "US", "state": "VA", "display_address": ["683 Thomas Jefferson Pkwy", "Charlottesville, VA 22902"]}, "phone": "+14349771234", "display_phone": "(434) 977-1234", "distance": 4203.010508435293}, {"id": "R0xaCQWO02GiTfypg_g3Ww", "alias": "thatch-winery-charlottesville", "name": "Thatch Winery", "image_url": "https://s3-media2.fl.yelpcdn.com/bphoto/0XRn9oQPdg5PV75sdNambw/o.jpg", "is_closed": false, "url": "https://www.yelp.com/biz/thatch-winery-charlottesville?adjust_creative=-VX0SUemRdQ6TmsA9_WLDg&utm_campaign=yelp_api_v3&utm_medium=api_v3_business_search&utm_source=-VX0SUemRdQ6TmsA9_WLDg", "review_count": 77, "categories": [{"alias": "wineries", "title": "Wineries"}], "rating": 4.5, "coordinates": {"latitude": 37.892833, "longitude": -78.556817}, "transactions": [], "price": "$$", "location": {"address1": "1650 Harris Creek Rd", "address2": "", "address3": "", "city": "Charlottesville", "zip_code": "22902", "country": "US", "state": "VA", "display_address": ["1650 Harris Creek Rd", "Charlottesville, VA 22902"]}, "phone": "+14349797105", "display_phone": "(434) 979-7105", "distance": 18253.08901028906}, {"id": "tN8BHK7ZZ6m4w8Nz1zPHOw", "alias": "knights-gambit-vineyards-charlottesville", "name": "Knight's Gambit Vineyards", "image_url": "https://s3-media2.fl.yelpcdn.com/bphoto/pXrAkBtnY9Rk3nvevT3RZA/o.jpg", "is_closed": false, "url": "https://www.yelp.com/biz/knights-gambit-vineyards-charlottesville?adjust_creative=-VX0SUemRdQ6TmsA9_WLDg&utm_campaign=yelp_api_v3&utm_medium=api_v3_business_search&utm_source=-VX0SUemRdQ6TmsA9_WLDg", "review_count": 33, "categories": [{"alias": "wineries", "title": "Wineries"}, {"alias": "venues", "title": "Venues & Event Spaces"}], "rating": 4.5, "coordinates": {"latitude": 38.095427, "longitude": -78.619198}, "transactions": [], "price": "$$", "location": {"address1": "2218 Lake Albemarle Rd", "address2": "", "address3": "", "city": "Charlottesville", "zip_code": "22901", "country": "US", "state": "VA", "display_address": ["2218 Lake Albemarle Rd", "Charlottesville, VA 22901"]}, "phone": "+14345661168", "display_phone": "(434) 566-1168", "distance": 13574.783921750126}, {"id": "VA4pefQlG1VqgCpiUIRsCQ", "alias": "albemarle-ciderworks-north-garden", "name": "Albemarle CiderWorks", "image_url": "https://s3-media3.fl.yelpcdn.com/bphoto/JBDYiLO7M2spRQZYw82dzA/o.jpg", "is_closed": false, "url": "https://www.yelp.com/biz/albemarle-ciderworks-north-garden?adjust_creative=-VX0SUemRdQ6TmsA9_WLDg&utm_campaign=yelp_api_v3&utm_medium=api_v3_business_search&utm_source=-VX0SUemRdQ6TmsA9_WLDg", "review_count": 65, "categories": [{"alias": "cideries", "title": "Cideries"}], "rating": 4.5, "coordinates": {"latitude": 37.9665873, "longitude": -78.6502108}, "transactions": [], "price": "$$", "location": {"address1": "2545 Rural Ridge Ln", "address2": "", "address3": "", "city": "North Garden", "zip_code": "22959", "country": "US", "state": "VA", "display_address": ["2545 Rural Ridge Ln", "North Garden, VA 22959"]}, "phone": "+14342972326", "display_phone": "(434) 297-2326", "distance": 17408.7491088697}, {"id": "I9iUk_d4NT_CeiXG3T4zZA", "alias": "castle-hill-cider-keswick", "name": "Castle Hill Cider", "image_url": "https://s3-media3.fl.yelpcdn.com/bphoto/8VJahDRe4NsD9T0fKk9LhA/o.jpg", "is_closed": false, "url": "https://www.yelp.com/biz/castle-hill-cider-keswick?adjust_creative=-VX0SUemRdQ6TmsA9_WLDg&utm_campaign=yelp_api_v3&utm_medium=api_v3_business_search&utm_source=-VX0SUemRdQ6TmsA9_WLDg", "review_count": 93, "categories": [{"alias": "cideries", "title": "Cideries"}], "rating": 4.0, "coordinates": {"latitude": 38.0869674682617, "longitude": -78.2906723022461}, "transactions": [], "price": "$$", "location": {"address1": "6065 Turkey Sag Rd", "address2": "", "address3": "", "city": "Keswick", "zip_code": "22947", "country": "US", "state": "VA", "display_address": ["6065 Turkey Sag Rd", "Keswick, VA 22947"]}, "phone": "+14342960047", "display_phone": "(434) 296-0047", "distance": 17104.183845762094}, {"id": "CknR5p90gGRs0xWlUL3fzA", "alias": "reynard-florence-vineyard-barboursville", "name": "Reynard Florence Vineyard", "image_url": "https://s3-media1.fl.yelpcdn.com/bphoto/nZquLS4EOv44cACd2Jfrew/o.jpg", "is_closed": false, "url": "https://www.yelp.com/biz/reynard-florence-vineyard-barboursville?adjust_creative=-VX0SUemRdQ6TmsA9_WLDg&utm_campaign=yelp_api_v3&utm_medium=api_v3_business_search&utm_source=-VX0SUemRdQ6TmsA9_WLDg", "review_count": 58, "categories": [{"alias": "wineries", "title": "Wineries"}], "rating": 4.5, "coordinates": {"latitude": 38.18495, "longitude": -78.33726}, "transactions": [], "price": "$$", "location": {"address1": "16109 Burnley Rd", "address2": "", "address3": "", "city": "Barboursville", "zip_code": "22923", "country": "US", "state": "VA", "display_address": ["16109 Burnley Rd", "Barboursville, VA 22923"]}, "phone": "+15408323895", "display_phone": "(540) 832-3895", "distance": 19827.26640600165}, {"id": "avXRMvunbLNJXrmdsCphgg", "alias": "montifalco-vineyard-ruckersville-2", "name": "Montifalco Vineyard", "image_url": "https://s3-media4.fl.yelpcdn.com/bphoto/f9f0BFZR2pZyAOcIoKwspQ/o.jpg", "is_closed": false, "url": "https://www.yelp.com/biz/montifalco-vineyard-ruckersville-2?adjust_creative=-VX0SUemRdQ6TmsA9_WLDg&utm_campaign=yelp_api_v3&utm_medium=api_v3_business_search&utm_source=-VX0SUemRdQ6TmsA9_WLDg", "review_count": 18, "categories": [{"alias": "winetastingroom", "title": "Wine Tasting Room"}], "rating": 4.5, "coordinates": {"latitude": 38.19465, "longitude": -78.43681}, "transactions": [], "location": {"address1": "1800 Fray Rd", "address2": null, "address3": "", "city": "Ruckersville", "zip_code": "22968", "country": "US", "state": "VA", "display_address": ["1800 Fray Rd", "Ruckersville, VA 22968"]}, "phone": "+14349899115", "display_phone": "(434) 989-9115", "distance": 17046.333228804466}, {"id": "O3Nfi8fmqyNjaUOmJSqBMQ", "alias": "grace-estate-winery-crozet", "name": "Grace Estate Winery", "image_url": "https://s3-media3.fl.yelpcdn.com/bphoto/dS03fRzcaXSPEQigY73Lsw/o.jpg", "is_closed": false, "url": "https://www.yelp.com/biz/grace-estate-winery-crozet?adjust_creative=-VX0SUemRdQ6TmsA9_WLDg&utm_campaign=yelp_api_v3&utm_medium=api_v3_business_search&utm_source=-VX0SUemRdQ6TmsA9_WLDg", "review_count": 69, "categories": [{"alias": "wineries", "title": "Wineries"}, {"alias": "venues", "title": "Venues & Event Spaces"}], "rating": 4.0, "coordinates": {"latitude": 38.11525, "longitude": -78.68259}, "transactions": [], "price": "$$", "location": {"address1": "5275 Mount Juliet Farm", "address2": "", "address3": "", "city": "Crozet", "zip_code": "22932", "country": "US", "state": "VA", "display_address": ["5275 Mount Juliet Farm", "Crozet, VA 22932"]}, "phone": "+14348231486", "display_phone": "(434) 823-1486", "distance": 19538.481139901938}, {"id": "Ao_d_F2Hb5sAKA2QR9dt8Q", "alias": "monticello-appellation-wine-tours-charlottesville-3", "name": "Monticello Appellation Wine Tours", "image_url": "https://s3-media1.fl.yelpcdn.com/bphoto/PIbczB6rEdtE5UT48Lt1UA/o.jpg", "is_closed": false, "url": "https://www.yelp.com/biz/monticello-appellation-wine-tours-charlottesville-3?adjust_creative=-VX0SUemRdQ6TmsA9_WLDg&utm_campaign=yelp_api_v3&utm_medium=api_v3_business_search&utm_source=-VX0SUemRdQ6TmsA9_WLDg", "review_count": 10, "categories": [{"alias": "winetours", "title": "Wine Tours"}], "rating": 5.0, "coordinates": {"latitude": 37.9990877, "longitude": -78.422138}, "transactions": [], "location": {"address1": "1493 Milton Rd", "address2": "", "address3": null, "city": "Charlottesville", "zip_code": "22902", "country": "US", "state": "VA", "display_address": ["1493 Milton Rd", "Charlottesville, VA 22902"]}, "phone": "+18888247273", "display_phone": "(888) 824-7273", "distance": 7084.393668401764}, {"id": "6WZX0egBvdqSXbLM-TDB8A", "alias": "in-vino-veritas-keswick", "name": "In Vino Veritas", "image_url": "https://s3-media3.fl.yelpcdn.com/bphoto/xUle1SXQBGa62FqHQW2WNw/o.jpg", "is_closed": false, "url": "https://www.yelp.com/biz/in-vino-veritas-keswick?adjust_creative=-VX0SUemRdQ6TmsA9_WLDg&utm_campaign=yelp_api_v3&utm_medium=api_v3_business_search&utm_source=-VX0SUemRdQ6TmsA9_WLDg", "review_count": 12, "categories": [{"alias": "beer_and_wine", "title": "Beer, Wine & Spirits"}], "rating": 4.5, "coordinates": {"latitude": 38.0141907, "longitude": -78.391909}, "transactions": [], "price": "$$", "location": {"address1": "3015 Louisa Rd", "address2": null, "address3": null, "city": "Keswick", "zip_code": "22947", "country": "US", "state": "VA", "display_address": ["3015 Louisa Rd", "Keswick, VA 22947"]}, "phone": "+14349776366", "display_phone": "(434) 977-6366", "distance": 8053.415321385792}, {"id": "cq-Zx3Wm6MHcZhqJgwsByw", "alias": "chestnut-oak-vineyard-barboursville", "name": "Chestnut Oak Vineyard", "image_url": "https://s3-media1.fl.yelpcdn.com/bphoto/ave2UeyqEZazBKWejmj_SQ/o.jpg", "is_closed": false, "url": "https://www.yelp.com/biz/chestnut-oak-vineyard-barboursville?adjust_creative=-VX0SUemRdQ6TmsA9_WLDg&utm_campaign=yelp_api_v3&utm_medium=api_v3_business_search&utm_source=-VX0SUemRdQ6TmsA9_WLDg", "review_count": 18, "categories": [{"alias": "wineries", "title": "Wineries"}], "rating": 4.5, "coordinates": {"latitude": 38.1400108, "longitude": -78.3262787}, "transactions": [], "location": {"address1": "5050 Stony Point Rd", "address2": "", "address3": "", "city": "Barboursville", "zip_code": "22923", "country": "US", "state": "VA", "display_address": ["5050 Stony Point Rd", "Barboursville, VA 22923"]}, "phone": "+14349649104", "display_phone": "(434) 964-9104", "distance": 16915.849115561276}, {"id": "LZbSe-peqgynuLoUaCI5Wg", "alias": "wineworks-extended-charlottesville", "name": "Wineworks Extended", "image_url": "https://s3-media2.fl.yelpcdn.com/bphoto/BwtyWxUgnJUeeYxkwSr4EA/o.jpg", "is_closed": false, "url": "https://www.yelp.com/biz/wineworks-extended-charlottesville?adjust_creative=-VX0SUemRdQ6TmsA9_WLDg&utm_campaign=yelp_api_v3&utm_medium=api_v3_business_search&utm_source=-VX0SUemRdQ6TmsA9_WLDg", "review_count": 7, "categories": [{"alias": "winetastingroom", "title": "Wine Tasting Room"}], "rating": 3.5, "coordinates": {"latitude": 38.00821, "longitude": -78.491042}, "transactions": [], "location": {"address1": "1585 Avon Street Ext", "address2": "", "address3": null, "city": "Charlottesville", "zip_code": "22902", "country": "US", "state": "VA", "display_address": ["1585 Avon Street Ext", "Charlottesville, VA 22902"]}, "phone": "+14345296848", "display_phone": "(434) 529-6848", "distance": 4224.043800662903}, {"id": "ozhrxzzxNZTykSDbM2857w", "alias": "mountfair-vineyards-crozet", "name": "Mountfair Vineyards", "image_url": "https://s3-media3.fl.yelpcdn.com/bphoto/MvQ2LuriqSKQb6VAj5iTFg/o.jpg", "is_closed": false, "url": "https://www.yelp.com/biz/mountfair-vineyards-crozet?adjust_creative=-VX0SUemRdQ6TmsA9_WLDg&utm_campaign=yelp_api_v3&utm_medium=api_v3_business_search&utm_source=-VX0SUemRdQ6TmsA9_WLDg", "review_count": 25, "categories": [{"alias": "wineries", "title": "Wineries"}], "rating": 4.0, "coordinates": {"latitude": 38.1702755, "longitude": -78.6675943}, "transactions": [], "price": "$$", "location": {"address1": "4875 Fox Mountain Rd", "address2": "", "address3": null, "city": "Crozet", "zip_code": "22932", "country": "US", "state": "VA", "display_address": ["4875 Fox Mountain Rd", "Crozet, VA 22932"]}, "phone": "+14348237605", "display_phone": "(434) 823-7605", "distance": 21669.71549355541}, {"id": "weDR6hkFXYkgL19EBPkfeQ", "alias": "white-hall-vineyards-crozet", "name": "White Hall Vineyards", "image_url": "https://s3-media2.fl.yelpcdn.com/bphoto/QI10PHiFQzmjlOlOJdMdAA/o.jpg", "is_closed": false, "url": "https://www.yelp.com/biz/white-hall-vineyards-crozet?adjust_creative=-VX0SUemRdQ6TmsA9_WLDg&utm_campaign=yelp_api_v3&utm_medium=api_v3_business_search&utm_source=-VX0SUemRdQ6TmsA9_WLDg", "review_count": 39, "categories": [{"alias": "wineries", "title": "Wineries"}], "rating": 4.0, "coordinates": {"latitude": 38.1345801, "longitude": -78.6808407}, "transactions": [], "price": "$$", "location": {"address1": "5282 Sugar Ridge Rd", "address2": "", "address3": "", "city": "Crozet", "zip_code": "22932", "country": "US", "state": "VA", "display_address": ["5282 Sugar Ridge Rd", "Crozet, VA 22932"]}, "phone": "+14348238615", "display_phone": "(434) 823-8615", "distance": 20359.415984737607}, {"id": "f_xjrOCjihwvgOO298pnBg", "alias": "cville-hop-on-tours-charlottesville", "name": "Cville Hop On Tours", "image_url": "https://s3-media1.fl.yelpcdn.com/bphoto/jeNeoW3eyhAf9nYUsxGedA/o.jpg", "is_closed": false, "url": "https://www.yelp.com/biz/cville-hop-on-tours-charlottesville?adjust_creative=-VX0SUemRdQ6TmsA9_WLDg&utm_campaign=yelp_api_v3&utm_medium=api_v3_business_search&utm_source=-VX0SUemRdQ6TmsA9_WLDg", "review_count": 63, "categories": [{"alias": "bustours", "title": "Bus Tours"}, {"alias": "breweries", "title": "Breweries"}, {"alias": "winetours", "title": "Wine Tours"}], "rating": 5.0, "coordinates": {"latitude": 38.026127, "longitude": -78.482209}, "transactions": [], "price": "$", "location": {"address1": "1591 Delphi Ln", "address2": "", "address3": "", "city": "Charlottesville", "zip_code": "22902", "country": "US", "state": "VA", "display_address": ["1591 Delphi Ln", "Charlottesville, VA 22902"]}, "phone": "+14342183565", "display_phone": "(434) 218-3565", "distance": 2107.654928147095}, {"id": "GGjlBlVgduqGtyW2-HO2Kw", "alias": "chisholm-vineyards-at-adventure-farm-earlysville", "name": "Chisholm Vineyards at Adventure Farm", "image_url": "https://s3-media4.fl.yelpcdn.com/bphoto/9_K8ftJDkWt0WkjeXo3A7A/o.jpg", "is_closed": false, "url": "https://www.yelp.com/biz/chisholm-vineyards-at-adventure-farm-earlysville?adjust_creative=-VX0SUemRdQ6TmsA9_WLDg&utm_campaign=yelp_api_v3&utm_medium=api_v3_business_search&utm_source=-VX0SUemRdQ6TmsA9_WLDg", "review_count": 11, "categories": [{"alias": "winetastingroom", "title": "Wine Tasting Room"}], "rating": 3.5, "coordinates": {"latitude": 38.1359, "longitude": -78.462551}, "transactions": [], "price": "$$", "location": {"address1": "1135 Clan Chisholm Ln", "address2": "", "address3": "", "city": "Earlysville", "zip_code": "22936", "country": "US", "state": "VA", "display_address": ["1135 Clan Chisholm Ln", "Earlysville, VA 22936"]}, "phone": "+14349718796", "display_phone": "(434) 971-8796", "distance": 10220.543037364256}, {"id": "Z0ODlg5b4K_T_BXcbPCD-A", "alias": "five-oaks-vineyard-barboursville", "name": "Five Oaks Vineyard", "image_url": "https://s3-media1.fl.yelpcdn.com/bphoto/3wJSgt1zRPKtUfTxTn3Hjw/o.jpg", "is_closed": false, "url": "https://www.yelp.com/biz/five-oaks-vineyard-barboursville?adjust_creative=-VX0SUemRdQ6TmsA9_WLDg&utm_campaign=yelp_api_v3&utm_medium=api_v3_business_search&utm_source=-VX0SUemRdQ6TmsA9_WLDg", "review_count": 5, "categories": [{"alias": "wineries", "title": "Wineries"}], "rating": 4.0, "coordinates": {"latitude": 38.1385366265544, "longitude": -78.3208838425751}, "transactions": [], "location": {"address1": "4574 Belle Vista Dr", "address2": "", "address3": "", "city": "Barboursville", "zip_code": "22923", "country": "US", "state": "VA", "display_address": ["4574 Belle Vista Dr", "Barboursville, VA 22923"]}, "phone": "+14345633822", "display_phone": "(434) 563-3822", "distance": 17259.861302539823}, {"id": "ed_eBX6SP3yLPRXPrlHDYw", "alias": "montfair-resort-farm-crozet", "name": "Montfair Resort Farm", "image_url": "https://s3-media3.fl.yelpcdn.com/bphoto/LsonJbL8LJcFio_JmiQ7TA/o.jpg", "is_closed": false, "url": "https://www.yelp.com/biz/montfair-resort-farm-crozet?adjust_creative=-VX0SUemRdQ6TmsA9_WLDg&utm_campaign=yelp_api_v3&utm_medium=api_v3_business_search&utm_source=-VX0SUemRdQ6TmsA9_WLDg", "review_count": 16, "categories": [{"alias": "vacation_rentals", "title": "Vacation Rentals"}, {"alias": "venues", "title": "Venues & Event Spaces"}, {"alias": "resorts", "title": "Resorts"}], "rating": 4.5, "coordinates": {"latitude": 38.1625060737133, "longitude": -78.6796677857637}, "transactions": [], "location": {"address1": "2500 Bezaleel Dr", "address2": null, "address3": "", "city": "Crozet", "zip_code": "22932", "country": "US", "state": "VA", "display_address": ["2500 Bezaleel Dr", "Crozet, VA 22932"]}, "phone": "+14348235202", "display_phone": "(434) 823-5202", "distance": 22025.498763247026}, {"id": "LhfPk4IGKUeaMzg3Y1sC7w", "alias": "burnley-vineyards-barboursville", "name": "Burnley Vineyards", "image_url": "https://s3-media3.fl.yelpcdn.com/bphoto/AgFcCiBP3kFPYbUgElB6NQ/o.jpg", "is_closed": false, "url": "https://www.yelp.com/biz/burnley-vineyards-barboursville?adjust_creative=-VX0SUemRdQ6TmsA9_WLDg&utm_campaign=yelp_api_v3&utm_medium=api_v3_business_search&utm_source=-VX0SUemRdQ6TmsA9_WLDg", "review_count": 45, "categories": [{"alias": "wineries", "title": "Wineries"}], "rating": 3.5, "coordinates": {"latitude": 38.15806343620882, "longitude": -78.31779653821891}, "transactions": [], "price": "$", "location": {"address1": "4500 Winery Ln", "address2": "", "address3": "", "city": "Barboursville", "zip_code": "22923", "country": "US", "state": "VA", "display_address": ["4500 Winery Ln", "Barboursville, VA 22923"]}, "phone": "+14349604411", "display_phone": "(434) 960-4411", "distance": 18850.288667036944}, {"id": "C_As4pGzfl3PYGo1dU2kIg", "alias": "the-wine-guild-of-charlottesville-charlottesville", "name": "The Wine Guild of Charlottesville", "image_url": "https://s3-media1.fl.yelpcdn.com/bphoto/2eqr27iM6tp2tGUdKgTMHQ/o.jpg", "is_closed": false, "url": "https://www.yelp.com/biz/the-wine-guild-of-charlottesville-charlottesville?adjust_creative=-VX0SUemRdQ6TmsA9_WLDg&utm_campaign=yelp_api_v3&utm_medium=api_v3_business_search&utm_source=-VX0SUemRdQ6TmsA9_WLDg", "review_count": 1, "categories": [{"alias": "wineries", "title": "Wineries"}], "rating": 5.0, "coordinates": {"latitude": 38.03919, "longitude": -78.4819}, "transactions": [], "price": "$", "location": {"address1": "606 Rivanna Ave", "address2": null, "address3": null, "city": "Charlottesville", "zip_code": "22903", "country": "US", "state": "VA", "display_address": ["606 Rivanna Ave", "Charlottesville, VA 22903"]}, "phone": "", "display_phone": "", "distance": 707.3373451346205}, {"id": "yZwcNqs8uoL_XzZHxlCgzQ", "alias": "michael-shaps-wineworks-charlottesville", "name": "Michael Shaps Wineworks", "image_url": "https://s3-media2.fl.yelpcdn.com/bphoto/RuhCQ828xXGZM0SXRHQ6Lg/o.jpg", "is_closed": false, "url": "https://www.yelp.com/biz/michael-shaps-wineworks-charlottesville?adjust_creative=-VX0SUemRdQ6TmsA9_WLDg&utm_campaign=yelp_api_v3&utm_medium=api_v3_business_search&utm_source=-VX0SUemRdQ6TmsA9_WLDg", "review_count": 52, "categories": [{"alias": "wineries", "title": "Wineries"}], "rating": 4.0, "coordinates": {"latitude": 37.89818, "longitude": -78.55736}, "transactions": [], "price": "$$", "location": {"address1": "1781 Harris Creek Way", "address2": "", "address3": null, "city": "Charlottesville", "zip_code": "22902", "country": "US", "state": "VA", "display_address": ["1781 Harris Creek Way", "Charlottesville, VA 22902"]}, "phone": "+14342963438", "display_phone": "(434) 296-3438", "distance": 17707.201611047938}, {"id": "t5ZTKNJggq-U0vt9Qk41Wg", "alias": "blue-ridge-wine-excursions-charlottesville", "name": "Blue Ridge Wine Excursions", "image_url": "https://s3-media2.fl.yelpcdn.com/bphoto/FN7guN_GiU259HDn7FSpEg/o.jpg", "is_closed": false, "url": "https://www.yelp.com/biz/blue-ridge-wine-excursions-charlottesville?adjust_creative=-VX0SUemRdQ6TmsA9_WLDg&utm_campaign=yelp_api_v3&utm_medium=api_v3_business_search&utm_source=-VX0SUemRdQ6TmsA9_WLDg", "review_count": 6, "categories": [{"alias": "tours", "title": "Tours"}], "rating": 4.0, "coordinates": {"latitude": 38.03563, "longitude": -78.4948}, "transactions": [], "location": {"address1": "", "address2": null, "address3": "", "city": "Charlottesville", "zip_code": "22903", "country": "US", "state": "VA", "display_address": ["Charlottesville, VA 22903"]}, "phone": "+14345315802", "display_phone": "(434) 531-5802", "distance": 1727.4724472178907}, {"id": "To5JPQcuCGw9yKYh26k6QA", "alias": "camryn-wine-tours-charlottesville", "name": "Camryn Wine Tours", "image_url": "https://s3-media2.fl.yelpcdn.com/bphoto/3NC42Kvef1BZNINCm823Zw/o.jpg", "is_closed": false, "url": "https://www.yelp.com/biz/camryn-wine-tours-charlottesville?adjust_creative=-VX0SUemRdQ6TmsA9_WLDg&utm_campaign=yelp_api_v3&utm_medium=api_v3_business_search&utm_source=-VX0SUemRdQ6TmsA9_WLDg", "review_count": 1, "categories": [{"alias": "winetours", "title": "Wine Tours"}], "rating": 5.0, "coordinates": {"latitude": 38.0301873, "longitude": -78.4777393}, "transactions": [], "location": {"address1": "513 E Main St", "address2": "Ste 1323", "address3": null, "city": "Charlottesville", "zip_code": "22902", "country": "US", "state": "VA", "display_address": ["513 E Main St", "Ste 1323", "Charlottesville, VA 22902"]}, "phone": "+14349798200", "display_phone": "(434) 979-8200", "distance": 1625.3319049376653}, {"id": "MCjLc1vRKpemkwOsb8WL5A", "alias": "norm-s-executive-transportation-charlottesville", "name": "Norm\u2019s Executive Transportation", "image_url": "https://s3-media3.fl.yelpcdn.com/bphoto/7DRTgd1W_A8zd0oobX4zFg/o.jpg", "is_closed": false, "url": "https://www.yelp.com/biz/norm-s-executive-transportation-charlottesville?adjust_creative=-VX0SUemRdQ6TmsA9_WLDg&utm_campaign=yelp_api_v3&utm_medium=api_v3_business_search&utm_source=-VX0SUemRdQ6TmsA9_WLDg", "review_count": 43, "categories": [{"alias": "winetours", "title": "Wine Tours"}, {"alias": "limos", "title": "Limos"}, {"alias": "beertours", "title": "Beer Tours"}], "rating": 5.0, "coordinates": {"latitude": 38.01734924316406, "longitude": -78.47737884521484}, "transactions": [], "location": {"address1": "", "address2": "", "address3": "", "city": "Charlottesville", "zip_code": "22902", "country": "US", "state": "VA", "display_address": ["Charlottesville, VA 22902"]}, "phone": "+14349898905", "display_phone": "(434) 989-8905", "distance": 1727.4724472178907}, {"id": "NnI21y2FU2RQKOWBAWDCzA", "alias": "wine-tours-of-virginia-charlottesville", "name": "Wine Tours of Virginia", "image_url": "", "is_closed": false, "url": "https://www.yelp.com/biz/wine-tours-of-virginia-charlottesville?adjust_creative=-VX0SUemRdQ6TmsA9_WLDg&utm_campaign=yelp_api_v3&utm_medium=api_v3_business_search&utm_source=-VX0SUemRdQ6TmsA9_WLDg", "review_count": 2, "categories": [{"alias": "winetours", "title": "Wine Tours"}], "rating": 1.0, "coordinates": {"latitude": 38.1078147888184, "longitude": -78.6411972045898}, "transactions": [], "location": {"address1": "2591 Pea Ridge Rd", "address2": null, "address3": null, "city": "Charlottesville", "zip_code": "22901", "country": "US", "state": "VA", "display_address": ["2591 Pea Ridge Rd", "Charlottesville, VA 22901"]}, "phone": "+14348232380", "display_phone": "(434) 823-2380", "distance": 15928.429069615073}, {"id": "5qNkM1pPktyaQVbQfjZfdw", "alias": "top-shelf-transportation-charlottesville", "name": "Top Shelf Transportation", "image_url": "https://s3-media1.fl.yelpcdn.com/bphoto/OQZ4jEJyaePHPmDokmq18Q/o.jpg", "is_closed": false, "url": "https://www.yelp.com/biz/top-shelf-transportation-charlottesville?adjust_creative=-VX0SUemRdQ6TmsA9_WLDg&utm_campaign=yelp_api_v3&utm_medium=api_v3_business_search&utm_source=-VX0SUemRdQ6TmsA9_WLDg", "review_count": 22, "categories": [{"alias": "winetours", "title": "Wine Tours"}, {"alias": "limos", "title": "Limos"}, {"alias": "beertours", "title": "Beer Tours"}], "rating": 5.0, "coordinates": {"latitude": 38.086855, "longitude": -78.469888}, "transactions": [], "location": {"address1": "1869 Seminole Trl", "address2": "Ste C", "address3": "", "city": "Charlottesville", "zip_code": "22901", "country": "US", "state": "VA", "display_address": ["1869 Seminole Trl", "Ste C", "Charlottesville, VA 22901"]}, "phone": "+14342959462", "display_phone": "(434) 295-9462", "distance": 4728.832737886612}, {"id": "RWy9KbL58h9HhTfJOHhmJA", "alias": "vingo-tours-charlottesville", "name": "VinGo Tours", "image_url": "https://s3-media1.fl.yelpcdn.com/bphoto/AQUza5nJBkkKWq2YmSG-Xg/o.jpg", "is_closed": false, "url": "https://www.yelp.com/biz/vingo-tours-charlottesville?adjust_creative=-VX0SUemRdQ6TmsA9_WLDg&utm_campaign=yelp_api_v3&utm_medium=api_v3_business_search&utm_source=-VX0SUemRdQ6TmsA9_WLDg", "review_count": 2, "categories": [{"alias": "winetours", "title": "Wine Tours"}], "rating": 5.0, "coordinates": {"latitude": 38.0423698425293, "longitude": -78.4617919921875}, "transactions": [], "location": {"address1": null, "address2": null, "address3": "", "city": "Charlottesville", "zip_code": "22901", "country": "US", "state": "VA", "display_address": ["Charlottesville, VA 22901"]}, "phone": "+14342601603", "display_phone": "(434) 260-1603", "distance": 1727.4724472178907}, {"id": "maMeVkLA1yIBkzbOm7aF6A", "alias": "hyatt-place-charlottesville-charlottesville", "name": "Hyatt Place Charlottesville", "image_url": "https://s3-media2.fl.yelpcdn.com/bphoto/5uIHa5_dx2QDHgzqu14hSg/o.jpg", "is_closed": false, "url": "https://www.yelp.com/biz/hyatt-place-charlottesville-charlottesville?adjust_creative=-VX0SUemRdQ6TmsA9_WLDg&utm_campaign=yelp_api_v3&utm_medium=api_v3_business_search&utm_source=-VX0SUemRdQ6TmsA9_WLDg", "review_count": 50, "categories": [{"alias": "hotels", "title": "Hotels"}, {"alias": "venues", "title": "Venues & Event Spaces"}], "rating": 4.0, "coordinates": {"latitude": 38.0664497284703, "longitude": -78.4935910085646}, "transactions": [], "price": "$$", "location": {"address1": "2100 Bond St", "address2": "", "address3": "", "city": "Charlottesville", "zip_code": "22901", "country": "US", "state": "VA", "display_address": ["2100 Bond St", "Charlottesville, VA 22901"]}, "phone": "+14349955200", "display_phone": "(434) 995-5200", "distance": 2763.470629043402}, {"id": "OePDEUHpth8EkGAbfQ7FGg", "alias": "omni-charlottesville-hotel-charlottesville", "name": "Omni Charlottesville Hotel", "image_url": "https://s3-media4.fl.yelpcdn.com/bphoto/yRMk-BrvBV6hfi2LWPKFqw/o.jpg", "is_closed": false, "url": "https://www.yelp.com/biz/omni-charlottesville-hotel-charlottesville?adjust_creative=-VX0SUemRdQ6TmsA9_WLDg&utm_campaign=yelp_api_v3&utm_medium=api_v3_business_search&utm_source=-VX0SUemRdQ6TmsA9_WLDg", "review_count": 109, "categories": [{"alias": "hotels", "title": "Hotels"}, {"alias": "venues", "title": "Venues & Event Spaces"}], "rating": 3.5, "coordinates": {"latitude": 38.031274, "longitude": -78.483499}, "transactions": [], "price": "$$$", "location": {"address1": "212 Ridge McIntire Rd", "address2": "", "address3": "", "city": "Charlottesville", "zip_code": "22903", "country": "US", "state": "VA", "display_address": ["212 Ridge McIntire Rd", "Charlottesville, VA 22903"]}, "phone": "+14349715500", "display_phone": "(434) 971-5500", "distance": 1577.0782517523362}, {"id": "yQ27NzO_Odi1gsjdv-XpfQ", "alias": "charlottesville-transportation-charlottesville", "name": "Charlottesville Transportation", "image_url": "https://s3-media3.fl.yelpcdn.com/bphoto/Di9WTUoKy27TGZpCRSTveQ/o.jpg", "is_closed": false, "url": "https://www.yelp.com/biz/charlottesville-transportation-charlottesville?adjust_creative=-VX0SUemRdQ6TmsA9_WLDg&utm_campaign=yelp_api_v3&utm_medium=api_v3_business_search&utm_source=-VX0SUemRdQ6TmsA9_WLDg", "review_count": 13, "categories": [{"alias": "airport_shuttles", "title": "Airport Shuttles"}, {"alias": "taxis", "title": "Taxis"}, {"alias": "winetours", "title": "Wine Tours"}], "rating": 5.0, "coordinates": {"latitude": 38.0423698425293, "longitude": -78.4617919921875}, "transactions": [], "location": {"address1": null, "address2": null, "address3": "", "city": "Charlottesville", "zip_code": "22901", "country": "US", "state": "VA", "display_address": ["Charlottesville, VA 22901"]}, "phone": "+14344668465", "display_phone": "(434) 466-8465", "distance": 1727.4724472178907}]