[{"id": "mr7C4suIQWIU35BL1SgZCA", "alias": "random-row-brewing-charlottesville", "name": "Random Row Brewing", "image_url": "https://s3-media4.fl.yelpcdn.com/bphoto/FUkM4k0NWfptIWEbnoJQvA/o.jpg", "is_closed": false, "url": "https://www.yelp.com/biz/random-row-brewing-charlottesville?adjust_creative=-VX0SUemRdQ6TmsA9_WLDg&utm_campaign=yelp_api_v3&utm_medium=api_v3_business_search&utm_source=-VX0SUemRdQ6TmsA9_WLDg", "review_count": 72, "categories": [{"alias": "breweries", "title": "Breweries"}], "rating": 4.0, "coordinates": {"latitude": 38.0350243, "longitude": -78.4864837}, "transactions": [], "price": "$", "location": {"address1": "608 Preston Ave", "address2": "", "address3": null, "city": "Charlottesville", "zip_code": "22903", "country": "US", "state": "VA", "display_address": ["608 Preston Ave", "Charlottesville, VA 22903"]}, "phone": "+14342848466", "display_phone": "(434) 284-8466", "distance": 1312.4564256902067}, {"id": "asAthOuraDc_NxBY6Ne9lA", "alias": "south-street-brewery-charlottesville", "name": "South Street Brewery", "image_url": "https://s3-media2.fl.yelpcdn.com/bphoto/QUbgUsN-_xl2o2w7pMD4xw/o.jpg", "is_closed": false, "url": "https://www.yelp.com/biz/south-street-brewery-charlottesville?adjust_creative=-VX0SUemRdQ6TmsA9_WLDg&utm_campaign=yelp_api_v3&utm_medium=api_v3_business_search&utm_source=-VX0SUemRdQ6TmsA9_WLDg", "review_count": 328, "categories": [{"alias": "breweries", "title": "Breweries"}, {"alias": "burgers", "title": "Burgers"}, {"alias": "sandwiches", "title": "Sandwiches"}], "rating": 4.0, "coordinates": {"latitude": 38.029338, "longitude": -78.4826883}, "transactions": ["delivery"], "price": "$$", "location": {"address1": "106 W South St", "address2": "", "address3": "", "city": "Charlottesville", "zip_code": "22902", "country": "US", "state": "VA", "display_address": ["106 W South St", "Charlottesville, VA 22902"]}, "phone": "+14342936550", "display_phone": "(434) 293-6550", "distance": 1766.0435473707373}, {"id": "lFnfvVdrkr5ZCNAiqt-Tpg", "alias": "starr-hill-brewery-charlottesville", "name": "Starr Hill Brewery", "image_url": "https://s3-media1.fl.yelpcdn.com/bphoto/UOJDRuPRbA5YhzAvXxczCA/o.jpg", "is_closed": false, "url": "https://www.yelp.com/biz/starr-hill-brewery-charlottesville?adjust_creative=-VX0SUemRdQ6TmsA9_WLDg&utm_campaign=yelp_api_v3&utm_medium=api_v3_business_search&utm_source=-VX0SUemRdQ6TmsA9_WLDg", "review_count": 10, "categories": [{"alias": "breweries", "title": "Breweries"}], "rating": 5.0, "coordinates": {"latitude": 38.03777667, "longitude": -78.491395}, "transactions": [], "location": {"address1": "946 Grady Ave", "address2": null, "address3": null, "city": "Charlottesville", "zip_code": "22903", "country": "US", "state": "VA", "display_address": ["946 Grady Ave", "Charlottesville, VA 22903"]}, "phone": "+14348235671", "display_phone": "(434) 823-5671", "distance": 1392.56824246328}, {"id": "1263xqcmsqqUURfrp427HQ", "alias": "selvedge-brewing-charlottesville-2", "name": "Selvedge Brewing", "image_url": "https://s3-media2.fl.yelpcdn.com/bphoto/Gy9bmypIYVJajeOFL6W5lw/o.jpg", "is_closed": false, "url": "https://www.yelp.com/biz/selvedge-brewing-charlottesville-2?adjust_creative=-VX0SUemRdQ6TmsA9_WLDg&utm_campaign=yelp_api_v3&utm_medium=api_v3_business_search&utm_source=-VX0SUemRdQ6TmsA9_WLDg", "review_count": 72, "categories": [{"alias": "brewpubs", "title": "Brewpubs"}, {"alias": "chicken_wings", "title": "Chicken Wings"}, {"alias": "sandwiches", "title": "Sandwiches"}], "rating": 4.0, "coordinates": {"latitude": 38.01952965628474, "longitude": -78.45573058301693}, "transactions": [], "location": {"address1": "1837 Broadway St", "address2": "", "address3": "The Wool Factory", "city": "Charlottesville", "zip_code": "22902", "country": "US", "state": "VA", "display_address": ["1837 Broadway St", "The Wool Factory", "Charlottesville, VA 22902"]}, "phone": "+14342700555", "display_phone": "(434) 270-0555", "distance": 3425.095608030863}, {"id": "VnCEHYb3tHaLYdLRIqHcDQ", "alias": "three-notchd-craft-kitchen-and-brewery-charlottesville-6", "name": "Three Notch'd Craft Kitchen & Brewery", "image_url": "https://s3-media3.fl.yelpcdn.com/bphoto/T01te9TP_ebh_pVbAm2gDQ/o.jpg", "is_closed": false, "url": "https://www.yelp.com/biz/three-notchd-craft-kitchen-and-brewery-charlottesville-6?adjust_creative=-VX0SUemRdQ6TmsA9_WLDg&utm_campaign=yelp_api_v3&utm_medium=api_v3_business_search&utm_source=-VX0SUemRdQ6TmsA9_WLDg", "review_count": 204, "categories": [{"alias": "newamerican", "title": "American (New)"}, {"alias": "breweries", "title": "Breweries"}, {"alias": "gastropubs", "title": "Gastropubs"}], "rating": 3.5, "coordinates": {"latitude": 38.0261135531783, "longitude": -78.4821860967373}, "transactions": ["delivery"], "price": "$$", "location": {"address1": "520 2nd St SE", "address2": null, "address3": "", "city": "Charlottesville", "zip_code": "22902", "country": "US", "state": "VA", "display_address": ["520 2nd St SE", "Charlottesville, VA 22902"]}, "phone": "+14349563141", "display_phone": "(434) 956-3141", "distance": 2108.7857923838565}, {"id": "DmRSBrzA1cX-NeXSrqG_GQ", "alias": "champion-brewing-charlottesville", "name": "Champion Brewing", "image_url": "https://s3-media4.fl.yelpcdn.com/bphoto/M-xuHZsVs87ICFVovzRX-A/o.jpg", "is_closed": false, "url": "https://www.yelp.com/biz/champion-brewing-charlottesville?adjust_creative=-VX0SUemRdQ6TmsA9_WLDg&utm_campaign=yelp_api_v3&utm_medium=api_v3_business_search&utm_source=-VX0SUemRdQ6TmsA9_WLDg", "review_count": 75, "categories": [{"alias": "breweries", "title": "Breweries"}], "rating": 4.0, "coordinates": {"latitude": 38.0277683, "longitude": -78.4784496}, "transactions": [], "price": "$$", "location": {"address1": "324 6th St SE", "address2": "", "address3": "", "city": "Charlottesville", "zip_code": "22902", "country": "US", "state": "VA", "display_address": ["324 6th St SE", "Charlottesville, VA 22902"]}, "phone": "+14342952739", "display_phone": "(434) 295-2739", "distance": 1894.850785897949}, {"id": "2jkDXrC9y0AS84fVel7qAw", "alias": "reason-beer-charlottesville", "name": "Reason Beer", "image_url": "https://s3-media2.fl.yelpcdn.com/bphoto/2MJVa0Rq8n6tEjzStzVIvA/o.jpg", "is_closed": false, "url": "https://www.yelp.com/biz/reason-beer-charlottesville?adjust_creative=-VX0SUemRdQ6TmsA9_WLDg&utm_campaign=yelp_api_v3&utm_medium=api_v3_business_search&utm_source=-VX0SUemRdQ6TmsA9_WLDg", "review_count": 16, "categories": [{"alias": "breweries", "title": "Breweries"}], "rating": 4.5, "coordinates": {"latitude": 38.0703773245881, "longitude": -78.4884551825472}, "transactions": [], "price": "$$", "location": {"address1": "1180 Seminole Trl", "address2": "Ste 290", "address3": null, "city": "Charlottesville", "zip_code": "22901", "country": "US", "state": "VA", "display_address": ["1180 Seminole Trl", "Ste 290", "Charlottesville, VA 22901"]}, "phone": "+14342600145", "display_phone": "(434) 260-0145", "distance": 2985.209246545055}, {"id": "aghKYhXjMBiM7vrZldGZIg", "alias": "rockfish-brewing-company-charlottesville", "name": "Rockfish Brewing Company", "image_url": "https://s3-media2.fl.yelpcdn.com/bphoto/K0ubdoFLKbaUKaqaDq5y1A/o.jpg", "is_closed": false, "url": "https://www.yelp.com/biz/rockfish-brewing-company-charlottesville?adjust_creative=-VX0SUemRdQ6TmsA9_WLDg&utm_campaign=yelp_api_v3&utm_medium=api_v3_business_search&utm_source=-VX0SUemRdQ6TmsA9_WLDg", "review_count": 23, "categories": [{"alias": "breweries", "title": "Breweries"}, {"alias": "beergardens", "title": "Beer Gardens"}], "rating": 4.0, "coordinates": {"latitude": 38.037279, "longitude": -78.489467}, "transactions": [], "location": {"address1": "900 Preston Ave", "address2": "", "address3": null, "city": "Charlottesville", "zip_code": "22903", "country": "US", "state": "VA", "display_address": ["900 Preston Ave", "Charlottesville, VA 22903"]}, "phone": "+14345660969", "display_phone": "(434) 566-0969", "distance": 1301.0199221308937}, {"id": "49X75FwJAnJvt0WTGgRrYw", "alias": "kardinal-hall-charlottesville", "name": "Kardinal Hall", "image_url": "https://s3-media4.fl.yelpcdn.com/bphoto/N-PJMOf8DSiiSre4pX_IZg/o.jpg", "is_closed": false, "url": "https://www.yelp.com/biz/kardinal-hall-charlottesville?adjust_creative=-VX0SUemRdQ6TmsA9_WLDg&utm_campaign=yelp_api_v3&utm_medium=api_v3_business_search&utm_source=-VX0SUemRdQ6TmsA9_WLDg", "review_count": 207, "categories": [{"alias": "beergardens", "title": "Beer Gardens"}, {"alias": "newamerican", "title": "American (New)"}, {"alias": "venues", "title": "Venues & Event Spaces"}], "rating": 4.0, "coordinates": {"latitude": 38.03621156211071, "longitude": -78.48787900236054}, "transactions": ["delivery"], "price": "$$", "location": {"address1": "722 Preston Ave", "address2": "Ste 101", "address3": "", "city": "Charlottesville", "zip_code": "22903", "country": "US", "state": "VA", "display_address": ["722 Preston Ave", "Ste 101", "Charlottesville, VA 22903"]}, "phone": "+14342954255", "display_phone": "(434) 295-4255", "distance": 1283.5540134578912}, {"id": "K759d2qGTh_IQhaEwBxNKQ", "alias": "north-american-sake-brewery-charlottesville-2", "name": "North American Sake Brewery", "image_url": "https://s3-media1.fl.yelpcdn.com/bphoto/aC9myAAgVX2Bm5E9zeP9AA/o.jpg", "is_closed": false, "url": "https://www.yelp.com/biz/north-american-sake-brewery-charlottesville-2?adjust_creative=-VX0SUemRdQ6TmsA9_WLDg&utm_campaign=yelp_api_v3&utm_medium=api_v3_business_search&utm_source=-VX0SUemRdQ6TmsA9_WLDg", "review_count": 73, "categories": [{"alias": "breweries", "title": "Breweries"}, {"alias": "ramen", "title": "Ramen"}, {"alias": "sushi", "title": "Sushi Bars"}], "rating": 4.0, "coordinates": {"latitude": 38.0259306513344, "longitude": -78.4820640502625}, "transactions": ["pickup"], "price": "$$", "location": {"address1": "522 2nd St SE", "address2": "", "address3": null, "city": "Charlottesville", "zip_code": "22902", "country": "US", "state": "VA", "display_address": ["522 2nd St SE", "Charlottesville, VA 22902"]}, "phone": "+14347678105", "display_phone": "(434) 767-8105", "distance": 2127.053892202781}, {"id": "zw3gKnw5YUU60NmN23cHnw", "alias": "potters-craft-cider-charlottesville", "name": "Potter's Craft Cider", "image_url": "https://s3-media2.fl.yelpcdn.com/bphoto/z1nLq03KjMKNMIJJAhbIrQ/o.jpg", "is_closed": false, "url": "https://www.yelp.com/biz/potters-craft-cider-charlottesville?adjust_creative=-VX0SUemRdQ6TmsA9_WLDg&utm_campaign=yelp_api_v3&utm_medium=api_v3_business_search&utm_source=-VX0SUemRdQ6TmsA9_WLDg", "review_count": 12, "categories": [{"alias": "cideries", "title": "Cideries"}], "rating": 4.5, "coordinates": {"latitude": 38.02725, "longitude": -78.47682}, "transactions": [], "location": {"address1": "209 Monticello Rd", "address2": null, "address3": "", "city": "Charlottesville", "zip_code": "22902", "country": "US", "state": "VA", "display_address": ["209 Monticello Rd", "Charlottesville, VA 22902"]}, "phone": "+14349640271", "display_phone": "(434) 964-0271", "distance": 1956.2317753424068}, {"id": "sRRptpHawX8h6NZ30uK5_Q", "alias": "glass-half-full-taproom-charlottesville", "name": "Glass Half Full Taproom", "image_url": "https://s3-media4.fl.yelpcdn.com/bphoto/1lzn-6lqeGYjOp5FLEAIYA/o.jpg", "is_closed": false, "url": "https://www.yelp.com/biz/glass-half-full-taproom-charlottesville?adjust_creative=-VX0SUemRdQ6TmsA9_WLDg&utm_campaign=yelp_api_v3&utm_medium=api_v3_business_search&utm_source=-VX0SUemRdQ6TmsA9_WLDg", "review_count": 2, "categories": [{"alias": "pubs", "title": "Pubs"}], "rating": 5.0, "coordinates": {"latitude": 38.0103853, "longitude": -78.5001549}, "transactions": [], "location": {"address1": "375 Merchant Walk Dr", "address2": null, "address3": "", "city": "Charlottesville", "zip_code": "22902", "country": "US", "state": "VA", "display_address": ["375 Merchant Walk Dr", "Charlottesville, VA 22902"]}, "phone": "+14343265056", "display_phone": "(434) 326-5056", "distance": 4099.448110983196}, {"id": "KaAgeF3sHNMwBEl2ApUQDw", "alias": "the-whiskey-jar-charlottesville", "name": "The Whiskey Jar", "image_url": "https://s3-media3.fl.yelpcdn.com/bphoto/PYDf4lAne0LO7S05ySsYBg/o.jpg", "is_closed": false, "url": "https://www.yelp.com/biz/the-whiskey-jar-charlottesville?adjust_creative=-VX0SUemRdQ6TmsA9_WLDg&utm_campaign=yelp_api_v3&utm_medium=api_v3_business_search&utm_source=-VX0SUemRdQ6TmsA9_WLDg", "review_count": 537, "categories": [{"alias": "southern", "title": "Southern"}, {"alias": "musicvenues", "title": "Music Venues"}, {"alias": "pubs", "title": "Pubs"}], "rating": 3.5, "coordinates": {"latitude": 38.0314077544935, "longitude": -78.4827099918209}, "transactions": ["pickup", "delivery"], "price": "$$", "location": {"address1": "227 W Main St", "address2": "", "address3": "", "city": "Charlottesville", "zip_code": "22902", "country": "US", "state": "VA", "display_address": ["227 W Main St", "Charlottesville, VA 22902"]}, "phone": "+14342021549", "display_phone": "(434) 202-1549", "distance": 1543.3544347383918}, {"id": "f_xjrOCjihwvgOO298pnBg", "alias": "cville-hop-on-tours-charlottesville", "name": "Cville Hop On Tours", "image_url": "https://s3-media1.fl.yelpcdn.com/bphoto/jeNeoW3eyhAf9nYUsxGedA/o.jpg", "is_closed": false, "url": "https://www.yelp.com/biz/cville-hop-on-tours-charlottesville?adjust_creative=-VX0SUemRdQ6TmsA9_WLDg&utm_campaign=yelp_api_v3&utm_medium=api_v3_business_search&utm_source=-VX0SUemRdQ6TmsA9_WLDg", "review_count": 63, "categories": [{"alias": "bustours", "title": "Bus Tours"}, {"alias": "breweries", "title": "Breweries"}, {"alias": "winetours", "title": "Wine Tours"}], "rating": 5.0, "coordinates": {"latitude": 38.026127, "longitude": -78.482209}, "transactions": [], "price": "$", "location": {"address1": "1591 Delphi Ln", "address2": "", "address3": "", "city": "Charlottesville", "zip_code": "22902", "country": "US", "state": "VA", "display_address": ["1591 Delphi Ln", "Charlottesville, VA 22902"]}, "phone": "+14342183565", "display_phone": "(434) 218-3565", "distance": 2107.654928147095}, {"id": "ftE4te1UGS7jEG8MQLz1HQ", "alias": "sedona-taphouse-charlottesville", "name": "Sedona Taphouse", "image_url": "https://s3-media2.fl.yelpcdn.com/bphoto/-abZ0PS6qonTr1cMw5noBw/o.jpg", "is_closed": false, "url": "https://www.yelp.com/biz/sedona-taphouse-charlottesville?adjust_creative=-VX0SUemRdQ6TmsA9_WLDg&utm_campaign=yelp_api_v3&utm_medium=api_v3_business_search&utm_source=-VX0SUemRdQ6TmsA9_WLDg", "review_count": 630, "categories": [{"alias": "bars", "title": "Bars"}, {"alias": "newamerican", "title": "American (New)"}], "rating": 4.0, "coordinates": {"latitude": 38.051092, "longitude": -78.505657}, "transactions": [], "price": "$$", "location": {"address1": "1035 Millmont St", "address2": "", "address3": "", "city": "Charlottesville", "zip_code": "22903", "country": "US", "state": "VA", "display_address": ["1035 Millmont St", "Charlottesville, VA 22903"]}, "phone": "+14342962337", "display_phone": "(434) 296-2337", "distance": 2513.344418250582}, {"id": "fcesTYabawpofUyhC46uhg", "alias": "meriwether-springs-vineyard-charlottesville-3", "name": "Meriwether Springs Vineyard", "image_url": "https://s3-media3.fl.yelpcdn.com/bphoto/lAx2SRo3tmPVeEdl81F9wA/o.jpg", "is_closed": false, "url": "https://www.yelp.com/biz/meriwether-springs-vineyard-charlottesville-3?adjust_creative=-VX0SUemRdQ6TmsA9_WLDg&utm_campaign=yelp_api_v3&utm_medium=api_v3_business_search&utm_source=-VX0SUemRdQ6TmsA9_WLDg", "review_count": 13, "categories": [{"alias": "venues", "title": "Venues & Event Spaces"}, {"alias": "winetastingroom", "title": "Wine Tasting Room"}, {"alias": "beergardens", "title": "Beer Gardens"}], "rating": 4.5, "coordinates": {"latitude": 38.06736, "longitude": -78.59546}, "transactions": [], "price": "$$", "location": {"address1": "1040 Owensville Rd", "address2": null, "address3": "", "city": "Charlottesville", "zip_code": "22901", "country": "US", "state": "VA", "display_address": ["1040 Owensville Rd", "Charlottesville, VA 22901"]}, "phone": "+14349647955", "display_phone": "(434) 964-7955", "distance": 10236.237588880665}, {"id": "I9iUk_d4NT_CeiXG3T4zZA", "alias": "castle-hill-cider-keswick", "name": "Castle Hill Cider", "image_url": "https://s3-media3.fl.yelpcdn.com/bphoto/8VJahDRe4NsD9T0fKk9LhA/o.jpg", "is_closed": false, "url": "https://www.yelp.com/biz/castle-hill-cider-keswick?adjust_creative=-VX0SUemRdQ6TmsA9_WLDg&utm_campaign=yelp_api_v3&utm_medium=api_v3_business_search&utm_source=-VX0SUemRdQ6TmsA9_WLDg", "review_count": 93, "categories": [{"alias": "cideries", "title": "Cideries"}], "rating": 4.0, "coordinates": {"latitude": 38.0869674682617, "longitude": -78.2906723022461}, "transactions": [], "price": "$$", "location": {"address1": "6065 Turkey Sag Rd", "address2": "", "address3": "", "city": "Keswick", "zip_code": "22947", "country": "US", "state": "VA", "display_address": ["6065 Turkey Sag Rd", "Keswick, VA 22947"]}, "phone": "+14342960047", "display_phone": "(434) 296-0047", "distance": 17104.183845762094}, {"id": "W1DCUK_z9FV_p6iVxSFRLA", "alias": "oakhart-social-restaurant-charlottesville", "name": "Oakhart Social Restaurant", "image_url": "https://s3-media1.fl.yelpcdn.com/bphoto/nOkpLC-6IkdFsyuUnF7WIQ/o.jpg", "is_closed": false, "url": "https://www.yelp.com/biz/oakhart-social-restaurant-charlottesville?adjust_creative=-VX0SUemRdQ6TmsA9_WLDg&utm_campaign=yelp_api_v3&utm_medium=api_v3_business_search&utm_source=-VX0SUemRdQ6TmsA9_WLDg", "review_count": 288, "categories": [{"alias": "newamerican", "title": "American (New)"}, {"alias": "bars", "title": "Bars"}, {"alias": "venues", "title": "Venues & Event Spaces"}], "rating": 4.5, "coordinates": {"latitude": 38.0310519381534, "longitude": -78.4879508289882}, "transactions": ["delivery"], "price": "$$", "location": {"address1": "511 W Main St", "address2": "", "address3": "", "city": "Charlottesville", "zip_code": "22903", "country": "US", "state": "VA", "display_address": ["511 W Main St", "Charlottesville, VA 22903"]}, "phone": "+14349955449", "display_phone": "(434) 995-5449", "distance": 1740.9279568759396}, {"id": "b2Bw7T6TAyehJVzkcRXOoA", "alias": "trump-winery-charlottesville-4", "name": "Trump Winery", "image_url": "https://s3-media3.fl.yelpcdn.com/bphoto/5zhXICCl2wvpHUB4GDpaHw/o.jpg", "is_closed": false, "url": "https://www.yelp.com/biz/trump-winery-charlottesville-4?adjust_creative=-VX0SUemRdQ6TmsA9_WLDg&utm_campaign=yelp_api_v3&utm_medium=api_v3_business_search&utm_source=-VX0SUemRdQ6TmsA9_WLDg", "review_count": 308, "categories": [{"alias": "wineries", "title": "Wineries"}], "rating": 4.0, "coordinates": {"latitude": 37.94642, "longitude": -78.5051}, "transactions": [], "price": "$$", "location": {"address1": "385 Albemarle House Dr", "address2": "", "address3": "", "city": "Charlottesville", "zip_code": "22902", "country": "US", "state": "VA", "display_address": ["385 Albemarle House Dr", "Charlottesville, VA 22902"]}, "phone": "+14342669909", "display_phone": "(434) 266-9909", "distance": 11233.849476356223}, {"id": "R3nR6UMrueKItohfld6-Pg", "alias": "beer-run-charlottesville", "name": "Beer Run", "image_url": "https://s3-media2.fl.yelpcdn.com/bphoto/qCw__E862bptMqGQb1Nfwg/o.jpg", "is_closed": false, "url": "https://www.yelp.com/biz/beer-run-charlottesville?adjust_creative=-VX0SUemRdQ6TmsA9_WLDg&utm_campaign=yelp_api_v3&utm_medium=api_v3_business_search&utm_source=-VX0SUemRdQ6TmsA9_WLDg", "review_count": 267, "categories": [{"alias": "newamerican", "title": "American (New)"}, {"alias": "beerbar", "title": "Beer Bar"}, {"alias": "coffee", "title": "Coffee & Tea"}], "rating": 4.0, "coordinates": {"latitude": 38.024637, "longitude": -78.46844}, "transactions": ["delivery"], "price": "$$", "location": {"address1": "156 Carlton Rd", "address2": "Ste 203", "address3": "", "city": "Charlottesville", "zip_code": "22902", "country": "US", "state": "VA", "display_address": ["156 Carlton Rd", "Ste 203", "Charlottesville, VA 22902"]}, "phone": "+14349842337", "display_phone": "(434) 984-2337", "distance": 2396.1539419695805}, {"id": "xu6MUtNCmGKIgMJu_RRpyw", "alias": "jack-browns-beer-and-burger-joint-charlottesville", "name": "Jack Brown's Beer & Burger Joint", "image_url": "https://s3-media1.fl.yelpcdn.com/bphoto/ooOA-z6INb2aJcJm48lK-A/o.jpg", "is_closed": false, "url": "https://www.yelp.com/biz/jack-browns-beer-and-burger-joint-charlottesville?adjust_creative=-VX0SUemRdQ6TmsA9_WLDg&utm_campaign=yelp_api_v3&utm_medium=api_v3_business_search&utm_source=-VX0SUemRdQ6TmsA9_WLDg", "review_count": 232, "categories": [{"alias": "burgers", "title": "Burgers"}, {"alias": "beerbar", "title": "Beer Bar"}], "rating": 4.0, "coordinates": {"latitude": 38.03019, "longitude": -78.48109}, "transactions": ["delivery", "pickup"], "price": "$", "location": {"address1": "109 2nd St SE", "address2": null, "address3": "", "city": "Charlottesville", "zip_code": "22902", "country": "US", "state": "VA", "display_address": ["109 2nd St SE", "Charlottesville, VA 22902"]}, "phone": "+14342440073", "display_phone": "(434) 244-0073", "distance": 1646.0138288668445}, {"id": "9WSh050KKnLktbzE3X5KBA", "alias": "jefferson-vineyards-charlottesville", "name": "Jefferson Vineyards", "image_url": "https://s3-media4.fl.yelpcdn.com/bphoto/MGBDPmDIc-_ovydYphaXjQ/o.jpg", "is_closed": false, "url": "https://www.yelp.com/biz/jefferson-vineyards-charlottesville?adjust_creative=-VX0SUemRdQ6TmsA9_WLDg&utm_campaign=yelp_api_v3&utm_medium=api_v3_business_search&utm_source=-VX0SUemRdQ6TmsA9_WLDg", "review_count": 237, "categories": [{"alias": "wineries", "title": "Wineries"}], "rating": 4.0, "coordinates": {"latitude": 37.990044, "longitude": -78.443643}, "transactions": [], "price": "$$", "location": {"address1": "1353 Thomas Jefferson Pkwy", "address2": null, "address3": "", "city": "Charlottesville", "zip_code": "22902", "country": "US", "state": "VA", "display_address": ["1353 Thomas Jefferson Pkwy", "Charlottesville, VA 22902"]}, "phone": "+14349773042", "display_phone": "(434) 977-3042", "distance": 6630.9503992019345}, {"id": "lKOm8PFszQzuV-qCxoErLw", "alias": "lazy-parrot-backyard-wings-and-brews-charlottesville", "name": "Lazy Parrot Backyard Wings and Brews", "image_url": "https://s3-media1.fl.yelpcdn.com/bphoto/Fv78d268OQhaljCwF2_-RQ/o.jpg", "is_closed": false, "url": "https://www.yelp.com/biz/lazy-parrot-backyard-wings-and-brews-charlottesville?adjust_creative=-VX0SUemRdQ6TmsA9_WLDg&utm_campaign=yelp_api_v3&utm_medium=api_v3_business_search&utm_source=-VX0SUemRdQ6TmsA9_WLDg", "review_count": 38, "categories": [{"alias": "brewpubs", "title": "Brewpubs"}], "rating": 3.5, "coordinates": {"latitude": 38.056523, "longitude": -78.495851}, "transactions": [], "price": "$$", "location": {"address1": "594 Pantops Ctr", "address2": "", "address3": "", "city": "Charlottesville", "zip_code": "22901", "country": "US", "state": "VA", "display_address": ["594 Pantops Ctr", "Charlottesville, VA 22901"]}, "phone": "+14342440723", "display_phone": "(434) 244-0723", "distance": 2029.230976660609}, {"id": "rCcVNOEbLf7ojdFZPlOKhQ", "alias": "lws-livery-stable-charlottesville", "name": "LW's Livery Stable", "image_url": "https://s3-media3.fl.yelpcdn.com/bphoto/yxcTwFykGVikXkzkCgt14g/o.jpg", "is_closed": false, "url": "https://www.yelp.com/biz/lws-livery-stable-charlottesville?adjust_creative=-VX0SUemRdQ6TmsA9_WLDg&utm_campaign=yelp_api_v3&utm_medium=api_v3_business_search&utm_source=-VX0SUemRdQ6TmsA9_WLDg", "review_count": 64, "categories": [{"alias": "newamerican", "title": "American (New)"}, {"alias": "cocktailbars", "title": "Cocktail Bars"}, {"alias": "pubs", "title": "Pubs"}], "rating": 4.0, "coordinates": {"latitude": 38.0316076774443, "longitude": -78.4830719578933}, "transactions": ["delivery"], "price": "$$", "location": {"address1": "120 Old Preston Ave", "address2": "", "address3": "", "city": "Charlottesville", "zip_code": "22902", "country": "US", "state": "VA", "display_address": ["120 Old Preston Ave", "Charlottesville, VA 22902"]}, "phone": "+14349955674", "display_phone": "(434) 995-5674", "distance": 1530.6486801046792}, {"id": "o47W8-SXvcnQbCsedPnbBQ", "alias": "citizen-burger-bar-charlottesville", "name": "Citizen Burger Bar", "image_url": "https://s3-media1.fl.yelpcdn.com/bphoto/FVQ2yaguG7EU0c0QtTrM8w/o.jpg", "is_closed": false, "url": "https://www.yelp.com/biz/citizen-burger-bar-charlottesville?adjust_creative=-VX0SUemRdQ6TmsA9_WLDg&utm_campaign=yelp_api_v3&utm_medium=api_v3_business_search&utm_source=-VX0SUemRdQ6TmsA9_WLDg", "review_count": 996, "categories": [{"alias": "burgers", "title": "Burgers"}, {"alias": "bars", "title": "Bars"}, {"alias": "salad", "title": "Salad"}], "rating": 4.0, "coordinates": {"latitude": 38.0304396046825, "longitude": -78.4805095503646}, "transactions": ["delivery"], "price": "$$", "location": {"address1": "212 E Main St", "address2": "", "address3": "", "city": "Charlottesville", "zip_code": "22902", "country": "US", "state": "VA", "display_address": ["212 E Main St", "Charlottesville, VA 22902"]}, "phone": "+14349799944", "display_phone": "(434) 979-9944", "distance": 1621.733143846631}, {"id": "p9CqttgkGPvfUk8jaxz-zA", "alias": "firefly-charlottesville-2", "name": "Firefly", "image_url": "https://s3-media3.fl.yelpcdn.com/bphoto/Sjf0DkMsh3Ult4w6nq8wYg/o.jpg", "is_closed": false, "url": "https://www.yelp.com/biz/firefly-charlottesville-2?adjust_creative=-VX0SUemRdQ6TmsA9_WLDg&utm_campaign=yelp_api_v3&utm_medium=api_v3_business_search&utm_source=-VX0SUemRdQ6TmsA9_WLDg", "review_count": 126, "categories": [{"alias": "bars", "title": "Bars"}, {"alias": "tradamerican", "title": "American (Traditional)"}], "rating": 4.0, "coordinates": {"latitude": 38.0255814, "longitude": -78.4671631}, "transactions": ["delivery", "pickup"], "price": "$$", "location": {"address1": "1304 E Market St", "address2": null, "address3": "", "city": "Charlottesville", "zip_code": "22902", "country": "US", "state": "VA", "display_address": ["1304 E Market St", "Charlottesville, VA 22902"]}, "phone": "+14342021050", "display_phone": "(434) 202-1050", "distance": 2323.9247630592445}, {"id": "bTCzss9ro-mAhzJKMtULfQ", "alias": "lampo-charlottesville", "name": "Lampo", "image_url": "https://s3-media3.fl.yelpcdn.com/bphoto/puwID0fAmWnKvpri5psb9Q/o.jpg", "is_closed": false, "url": "https://www.yelp.com/biz/lampo-charlottesville?adjust_creative=-VX0SUemRdQ6TmsA9_WLDg&utm_campaign=yelp_api_v3&utm_medium=api_v3_business_search&utm_source=-VX0SUemRdQ6TmsA9_WLDg", "review_count": 413, "categories": [{"alias": "italian", "title": "Italian"}, {"alias": "pizza", "title": "Pizza"}, {"alias": "beer_and_wine", "title": "Beer, Wine & Spirits"}], "rating": 4.5, "coordinates": {"latitude": 38.0273899, "longitude": -78.47684}, "transactions": ["delivery"], "price": "$$", "location": {"address1": "205 Monticello Rd", "address2": "", "address3": "", "city": "Charlottesville", "zip_code": "22902", "country": "US", "state": "VA", "display_address": ["205 Monticello Rd", "Charlottesville, VA 22902"]}, "phone": "+14342443226", "display_phone": "(434) 244-3226", "distance": 1941.2218764190266}, {"id": "CtkwrnW_PDRhO240ElSIqQ", "alias": "wish-wish-wine-tours-charlottesville-2", "name": "Wish Wish Wine Tours", "image_url": "https://s3-media1.fl.yelpcdn.com/bphoto/tK1LiU3a1nKKJEIsPC82rA/o.jpg", "is_closed": false, "url": "https://www.yelp.com/biz/wish-wish-wine-tours-charlottesville-2?adjust_creative=-VX0SUemRdQ6TmsA9_WLDg&utm_campaign=yelp_api_v3&utm_medium=api_v3_business_search&utm_source=-VX0SUemRdQ6TmsA9_WLDg", "review_count": 125, "categories": [{"alias": "winetours", "title": "Wine Tours"}], "rating": 5.0, "coordinates": {"latitude": 38.0110704, "longitude": -78.4983687}, "transactions": [], "location": {"address1": "435 Merchant Walk Sq", "address2": "Ste 300  593", "address3": "", "city": "Charlottesville", "zip_code": "22902", "country": "US", "state": "VA", "display_address": ["435 Merchant Walk Sq", "Ste 300  593", "Charlottesville, VA 22902"]}, "phone": "+14342021615", "display_phone": "(434) 202-1615", "distance": 4150.11614990717}, {"id": "PgiXMBVNsIQImc56VzwNUQ", "alias": "ix-art-park-charlottesville", "name": "IX Art Park", "image_url": "https://s3-media4.fl.yelpcdn.com/bphoto/6WEywYv51S3-_i0EMor4xw/o.jpg", "is_closed": false, "url": "https://www.yelp.com/biz/ix-art-park-charlottesville?adjust_creative=-VX0SUemRdQ6TmsA9_WLDg&utm_campaign=yelp_api_v3&utm_medium=api_v3_business_search&utm_source=-VX0SUemRdQ6TmsA9_WLDg", "review_count": 17, "categories": [{"alias": "theater", "title": "Performing Arts"}, {"alias": "festivals", "title": "Festivals"}, {"alias": "venues", "title": "Venues & Event Spaces"}], "rating": 4.5, "coordinates": {"latitude": 38.0261880044002, "longitude": -78.4823198073402}, "transactions": [], "location": {"address1": "522 2nd St SE", "address2": null, "address3": "", "city": "Charlottesville", "zip_code": "22902", "country": "US", "state": "VA", "display_address": ["522 2nd St SE", "Charlottesville, VA 22902"]}, "phone": "+14342072355", "display_phone": "(434) 207-2355", "distance": 2102.6607174045894}, {"id": "k-u3m0c0N8MVJGyqiCwP6A", "alias": "taste-of-virginia-food-tours-charlottesville-4", "name": "Taste of Virginia Food Tours", "image_url": "https://s3-media2.fl.yelpcdn.com/bphoto/ti9nqsLU_A6bLocUn8VcKg/o.jpg", "is_closed": false, "url": "https://www.yelp.com/biz/taste-of-virginia-food-tours-charlottesville-4?adjust_creative=-VX0SUemRdQ6TmsA9_WLDg&utm_campaign=yelp_api_v3&utm_medium=api_v3_business_search&utm_source=-VX0SUemRdQ6TmsA9_WLDg", "review_count": 2, "categories": [{"alias": "foodtours", "title": "Food Tours"}], "rating": 5.0, "coordinates": {"latitude": 38.02940667, "longitude": -78.47738583}, "transactions": [], "location": {"address1": "610 E Main St", "address2": null, "address3": "", "city": "Charlottesville", "zip_code": "22902", "country": "US", "state": "VA", "display_address": ["610 E Main St", "Charlottesville, VA 22902"]}, "phone": "+14345895558", "display_phone": "(434) 589-5558", "distance": 1736.8360274877955}, {"id": "gXNjZS7yl2MRq9BY63v8Tg", "alias": "glass-house-winery-free-union", "name": "Glass House Winery", "image_url": "https://s3-media2.fl.yelpcdn.com/bphoto/MHRI2-_ekOWhc2AOFv7OrQ/o.jpg", "is_closed": false, "url": "https://www.yelp.com/biz/glass-house-winery-free-union?adjust_creative=-VX0SUemRdQ6TmsA9_WLDg&utm_campaign=yelp_api_v3&utm_medium=api_v3_business_search&utm_source=-VX0SUemRdQ6TmsA9_WLDg", "review_count": 87, "categories": [{"alias": "wineries", "title": "Wineries"}, {"alias": "venues", "title": "Venues & Event Spaces"}, {"alias": "bedbreakfast", "title": "Bed & Breakfast"}], "rating": 4.5, "coordinates": {"latitude": 38.2025939, "longitude": -78.5791314}, "transactions": [], "price": "$$", "location": {"address1": "5898 Free Union Rd", "address2": "", "address3": "", "city": "Free Union", "zip_code": "22940", "country": "US", "state": "VA", "display_address": ["5898 Free Union Rd", "Free Union, VA 22940"]}, "phone": "+14349750094", "display_phone": "(434) 975-0094", "distance": 19646.202481905748}, {"id": "t1fw6iQKWR9r7ZVy_OVF2A", "alias": "tonic-charlottesville-3", "name": "Tonic", "image_url": "https://s3-media3.fl.yelpcdn.com/bphoto/G2N093iTSBRkJnG0t3qxng/o.jpg", "is_closed": false, "url": "https://www.yelp.com/biz/tonic-charlottesville-3?adjust_creative=-VX0SUemRdQ6TmsA9_WLDg&utm_campaign=yelp_api_v3&utm_medium=api_v3_business_search&utm_source=-VX0SUemRdQ6TmsA9_WLDg", "review_count": 35, "categories": [{"alias": "newamerican", "title": "American (New)"}, {"alias": "cocktailbars", "title": "Cocktail Bars"}, {"alias": "sandwiches", "title": "Sandwiches"}], "rating": 4.5, "coordinates": {"latitude": 38.03055, "longitude": -78.47695}, "transactions": ["delivery"], "location": {"address1": "609 E Market St", "address2": null, "address3": "", "city": "Charlottesville", "zip_code": "22902", "country": "US", "state": "VA", "display_address": ["609 E Market St", "Charlottesville, VA 22902"]}, "phone": "+14342264270", "display_phone": "(434) 226-4270", "distance": 1594.403086278138}, {"id": "lj7GqdT72MREIZJKptRd3w", "alias": "timberwood-tap-house-charlottesville", "name": "Timberwood Tap House", "image_url": "https://s3-media2.fl.yelpcdn.com/bphoto/N5TYQVA4dRLFqStUFGwo9g/o.jpg", "is_closed": false, "url": "https://www.yelp.com/biz/timberwood-tap-house-charlottesville?adjust_creative=-VX0SUemRdQ6TmsA9_WLDg&utm_campaign=yelp_api_v3&utm_medium=api_v3_business_search&utm_source=-VX0SUemRdQ6TmsA9_WLDg", "review_count": 117, "categories": [{"alias": "tradamerican", "title": "American (Traditional)"}, {"alias": "breakfast_brunch", "title": "Breakfast & Brunch"}, {"alias": "beerbar", "title": "Beer Bar"}], "rating": 3.5, "coordinates": {"latitude": 38.0101951, "longitude": -78.4989805}, "transactions": ["delivery", "pickup"], "price": "$$", "location": {"address1": "245 Merchant Walk Ave", "address2": "Ste 100", "address3": null, "city": "Charlottesville", "zip_code": "22902", "country": "US", "state": "VA", "display_address": ["245 Merchant Walk Ave", "Ste 100", "Charlottesville, VA 22902"]}, "phone": "+14342343563", "display_phone": "(434) 234-3563", "distance": 4261.025390343069}, {"id": "VBbAjRwQcGMSxdrsIGcI5g", "alias": "d\u00fcrty-nellys-pub-deli-charlottesville", "name": "D\u00fcrty Nelly's Pub - Deli", "image_url": "https://s3-media1.fl.yelpcdn.com/bphoto/onaI-jjQr0ElJErnToGq4A/o.jpg", "is_closed": false, "url": "https://www.yelp.com/biz/d%C3%BCrty-nellys-pub-deli-charlottesville?adjust_creative=-VX0SUemRdQ6TmsA9_WLDg&utm_campaign=yelp_api_v3&utm_medium=api_v3_business_search&utm_source=-VX0SUemRdQ6TmsA9_WLDg", "review_count": 27, "categories": [{"alias": "delis", "title": "Delis"}, {"alias": "irish_pubs", "title": "Irish Pub"}, {"alias": "divebars", "title": "Dive Bars"}], "rating": 4.0, "coordinates": {"latitude": 38.025687, "longitude": -78.515404}, "transactions": ["delivery", "pickup"], "price": "$", "location": {"address1": "2200 Jefferson Park Ave", "address2": "", "address3": "", "city": "Charlottesville", "zip_code": "22903", "country": "US", "state": "VA", "display_address": ["2200 Jefferson Park Ave", "Charlottesville, VA 22903"]}, "phone": "+14342951278", "display_phone": "(434) 295-1278", "distance": 3898.485201901561}, {"id": "Yze5pIQZgtlCnzsYOVmZMQ", "alias": "bjs-restaurant-and-brewhouse-charlottesville", "name": "BJ's Restaurant & Brewhouse", "image_url": "https://s3-media4.fl.yelpcdn.com/bphoto/6sdiYAR4b57r2YOdBK1GIA/o.jpg", "is_closed": false, "url": "https://www.yelp.com/biz/bjs-restaurant-and-brewhouse-charlottesville?adjust_creative=-VX0SUemRdQ6TmsA9_WLDg&utm_campaign=yelp_api_v3&utm_medium=api_v3_business_search&utm_source=-VX0SUemRdQ6TmsA9_WLDg", "review_count": 192, "categories": [{"alias": "breweries", "title": "Breweries"}, {"alias": "newamerican", "title": "American (New)"}, {"alias": "catering", "title": "Caterers"}], "rating": 2.5, "coordinates": {"latitude": 38.06729410372431, "longitude": -78.48800087514593}, "transactions": ["delivery"], "price": "$$", "location": {"address1": "3924 Lenox Ave", "address2": "", "address3": null, "city": "Charlottesville", "zip_code": "22901", "country": "US", "state": "VA", "display_address": ["3924 Lenox Ave", "Charlottesville, VA 22901"]}, "phone": "+14344225170", "display_phone": "(434) 422-5170", "distance": 2647.345932220431}, {"id": "VumgI9hiSs_NMsvn04ImZA", "alias": "carter-mountain-orchard-charlottesville", "name": "Carter Mountain Orchard", "image_url": "https://s3-media2.fl.yelpcdn.com/bphoto/PamFXbWWmP7uTu5mHEjGaA/o.jpg", "is_closed": false, "url": "https://www.yelp.com/biz/carter-mountain-orchard-charlottesville?adjust_creative=-VX0SUemRdQ6TmsA9_WLDg&utm_campaign=yelp_api_v3&utm_medium=api_v3_business_search&utm_source=-VX0SUemRdQ6TmsA9_WLDg", "review_count": 379, "categories": [{"alias": "pickyourown", "title": "Pick Your Own Farms"}, {"alias": "cideries", "title": "Cideries"}, {"alias": "winetastingroom", "title": "Wine Tasting Room"}], "rating": 4.0, "coordinates": {"latitude": 37.9896, "longitude": -78.47364}, "transactions": [], "price": "$", "location": {"address1": "1435 Carters Mountain Trl", "address2": "", "address3": "", "city": "Charlottesville", "zip_code": "22902", "country": "US", "state": "VA", "display_address": ["1435 Carters Mountain Trl", "Charlottesville, VA 22902"]}, "phone": "+14349771833", "display_phone": "(434) 977-1833", "distance": 5967.364459069115}, {"id": "O3Nfi8fmqyNjaUOmJSqBMQ", "alias": "grace-estate-winery-crozet", "name": "Grace Estate Winery", "image_url": "https://s3-media3.fl.yelpcdn.com/bphoto/dS03fRzcaXSPEQigY73Lsw/o.jpg", "is_closed": false, "url": "https://www.yelp.com/biz/grace-estate-winery-crozet?adjust_creative=-VX0SUemRdQ6TmsA9_WLDg&utm_campaign=yelp_api_v3&utm_medium=api_v3_business_search&utm_source=-VX0SUemRdQ6TmsA9_WLDg", "review_count": 69, "categories": [{"alias": "wineries", "title": "Wineries"}, {"alias": "venues", "title": "Venues & Event Spaces"}], "rating": 4.0, "coordinates": {"latitude": 38.11525, "longitude": -78.68259}, "transactions": [], "price": "$$", "location": {"address1": "5275 Mount Juliet Farm", "address2": "", "address3": "", "city": "Crozet", "zip_code": "22932", "country": "US", "state": "VA", "display_address": ["5275 Mount Juliet Farm", "Crozet, VA 22932"]}, "phone": "+14348231486", "display_phone": "(434) 823-1486", "distance": 19538.481139901938}, {"id": "aGUydtpMmc-xbVTit-omtQ", "alias": "orzo-kitchen-and-wine-bar-charlottesville", "name": "Orzo Kitchen & Wine Bar", "image_url": "https://s3-media4.fl.yelpcdn.com/bphoto/GrhmAg7FxJG-4tWIsRowrw/o.jpg", "is_closed": false, "url": "https://www.yelp.com/biz/orzo-kitchen-and-wine-bar-charlottesville?adjust_creative=-VX0SUemRdQ6TmsA9_WLDg&utm_campaign=yelp_api_v3&utm_medium=api_v3_business_search&utm_source=-VX0SUemRdQ6TmsA9_WLDg", "review_count": 281, "categories": [{"alias": "wine_bars", "title": "Wine Bars"}, {"alias": "mediterranean", "title": "Mediterranean"}, {"alias": "italian", "title": "Italian"}], "rating": 4.0, "coordinates": {"latitude": 38.030408, "longitude": -78.48726}, "transactions": ["delivery"], "price": "$$", "location": {"address1": "416 W Main St", "address2": "", "address3": "Main Street Market", "city": "Charlottesville", "zip_code": "22903", "country": "US", "state": "VA", "display_address": ["416 W Main St", "Main Street Market", "Charlottesville, VA 22903"]}, "phone": "+14349756796", "display_phone": "(434) 975-6796", "distance": 1790.1862646259779}, {"id": "yZwcNqs8uoL_XzZHxlCgzQ", "alias": "michael-shaps-wineworks-charlottesville", "name": "Michael Shaps Wineworks", "image_url": "https://s3-media2.fl.yelpcdn.com/bphoto/RuhCQ828xXGZM0SXRHQ6Lg/o.jpg", "is_closed": false, "url": "https://www.yelp.com/biz/michael-shaps-wineworks-charlottesville?adjust_creative=-VX0SUemRdQ6TmsA9_WLDg&utm_campaign=yelp_api_v3&utm_medium=api_v3_business_search&utm_source=-VX0SUemRdQ6TmsA9_WLDg", "review_count": 52, "categories": [{"alias": "wineries", "title": "Wineries"}], "rating": 4.0, "coordinates": {"latitude": 37.89818, "longitude": -78.55736}, "transactions": [], "price": "$$", "location": {"address1": "1781 Harris Creek Way", "address2": "", "address3": null, "city": "Charlottesville", "zip_code": "22902", "country": "US", "state": "VA", "display_address": ["1781 Harris Creek Way", "Charlottesville, VA 22902"]}, "phone": "+14342963438", "display_phone": "(434) 296-3438", "distance": 17707.201611047938}, {"id": "hbWJgWbLM4ZWVlLXvpgLow", "alias": "champion-grill-charlottesville", "name": "Champion Grill", "image_url": "https://s3-media4.fl.yelpcdn.com/bphoto/x0Fudk7zTG-As-1H3NzilA/o.jpg", "is_closed": false, "url": "https://www.yelp.com/biz/champion-grill-charlottesville?adjust_creative=-VX0SUemRdQ6TmsA9_WLDg&utm_campaign=yelp_api_v3&utm_medium=api_v3_business_search&utm_source=-VX0SUemRdQ6TmsA9_WLDg", "review_count": 24, "categories": [{"alias": "brewpubs", "title": "Brewpubs"}], "rating": 3.0, "coordinates": {"latitude": 38.065649, "longitude": -78.493329}, "transactions": [], "location": {"address1": "2075 Bond St", "address2": "Ste 180", "address3": null, "city": "Charlottesville", "zip_code": "22901", "country": "US", "state": "VA", "display_address": ["2075 Bond St", "Ste 180", "Charlottesville, VA 22901"]}, "phone": "+14342021076", "display_phone": "(434) 202-1076", "distance": 2674.755450909229}, {"id": "yeK8ugGlqg4_qtHTFG64dg", "alias": "rapture-charlottesville", "name": "Rapture", "image_url": "https://s3-media3.fl.yelpcdn.com/bphoto/Zp0MqjQdwVcIRBHCE94Yiw/o.jpg", "is_closed": false, "url": "https://www.yelp.com/biz/rapture-charlottesville?adjust_creative=-VX0SUemRdQ6TmsA9_WLDg&utm_campaign=yelp_api_v3&utm_medium=api_v3_business_search&utm_source=-VX0SUemRdQ6TmsA9_WLDg", "review_count": 162, "categories": [{"alias": "newamerican", "title": "American (New)"}, {"alias": "bars", "title": "Bars"}], "rating": 3.5, "coordinates": {"latitude": 38.0303673, "longitude": -78.4796858}, "transactions": ["delivery"], "price": "$$", "location": {"address1": "303 E Main St", "address2": "", "address3": "", "city": "Charlottesville", "zip_code": "22902", "country": "US", "state": "VA", "display_address": ["303 E Main St", "Charlottesville, VA 22902"]}, "phone": "+14342939526", "display_phone": "(434) 293-9526", "distance": 1609.8496247837506}, {"id": "MCjLc1vRKpemkwOsb8WL5A", "alias": "norm-s-executive-transportation-charlottesville", "name": "Norm\u2019s Executive Transportation", "image_url": "https://s3-media3.fl.yelpcdn.com/bphoto/7DRTgd1W_A8zd0oobX4zFg/o.jpg", "is_closed": false, "url": "https://www.yelp.com/biz/norm-s-executive-transportation-charlottesville?adjust_creative=-VX0SUemRdQ6TmsA9_WLDg&utm_campaign=yelp_api_v3&utm_medium=api_v3_business_search&utm_source=-VX0SUemRdQ6TmsA9_WLDg", "review_count": 43, "categories": [{"alias": "winetours", "title": "Wine Tours"}, {"alias": "limos", "title": "Limos"}, {"alias": "beertours", "title": "Beer Tours"}], "rating": 5.0, "coordinates": {"latitude": 38.01734924316406, "longitude": -78.47737884521484}, "transactions": [], "location": {"address1": "", "address2": "", "address3": "", "city": "Charlottesville", "zip_code": "22902", "country": "US", "state": "VA", "display_address": ["Charlottesville, VA 22902"]}, "phone": "+14349898905", "display_phone": "(434) 989-8905", "distance": 1727.4724472178907}, {"id": "RWy9KbL58h9HhTfJOHhmJA", "alias": "vingo-tours-charlottesville", "name": "VinGo Tours", "image_url": "https://s3-media1.fl.yelpcdn.com/bphoto/AQUza5nJBkkKWq2YmSG-Xg/o.jpg", "is_closed": false, "url": "https://www.yelp.com/biz/vingo-tours-charlottesville?adjust_creative=-VX0SUemRdQ6TmsA9_WLDg&utm_campaign=yelp_api_v3&utm_medium=api_v3_business_search&utm_source=-VX0SUemRdQ6TmsA9_WLDg", "review_count": 2, "categories": [{"alias": "winetours", "title": "Wine Tours"}], "rating": 5.0, "coordinates": {"latitude": 38.0423698425293, "longitude": -78.4617919921875}, "transactions": [], "location": {"address1": null, "address2": null, "address3": "", "city": "Charlottesville", "zip_code": "22901", "country": "US", "state": "VA", "display_address": ["Charlottesville, VA 22901"]}, "phone": "+14342601603", "display_phone": "(434) 260-1603", "distance": 1727.4724472178907}, {"id": "jmay81hcvvaE7sUTos4SsQ", "alias": "mellow-mushroom-charlottesville-charlottesville", "name": "Mellow Mushroom - Charlottesville", "image_url": "https://s3-media4.fl.yelpcdn.com/bphoto/g1jz1Ho8yW0Wh3ehE6QQyA/o.jpg", "is_closed": false, "url": "https://www.yelp.com/biz/mellow-mushroom-charlottesville-charlottesville?adjust_creative=-VX0SUemRdQ6TmsA9_WLDg&utm_campaign=yelp_api_v3&utm_medium=api_v3_business_search&utm_source=-VX0SUemRdQ6TmsA9_WLDg", "review_count": 276, "categories": [{"alias": "pizza", "title": "Pizza"}, {"alias": "bars", "title": "Bars"}, {"alias": "sandwiches", "title": "Sandwiches"}], "rating": 4.0, "coordinates": {"latitude": 38.03371582970856, "longitude": -78.49861221288013}, "transactions": ["delivery"], "price": "$$", "location": {"address1": "1321 W Main St", "address2": "", "address3": "", "city": "Charlottesville", "zip_code": "22903", "country": "US", "state": "VA", "display_address": ["1321 W Main St", "Charlottesville, VA 22903"]}, "phone": "+14349729366", "display_phone": "(434) 972-9366", "distance": 2179.4811601712345}, {"id": "MFWjgsK8wOwiUlSJwhdHhg", "alias": "market-street-wine-charlottesville-2", "name": "Market Street Wine", "image_url": "https://s3-media2.fl.yelpcdn.com/bphoto/KcN9SbSDmKsV7ikRA7CuPg/o.jpg", "is_closed": false, "url": "https://www.yelp.com/biz/market-street-wine-charlottesville-2?adjust_creative=-VX0SUemRdQ6TmsA9_WLDg&utm_campaign=yelp_api_v3&utm_medium=api_v3_business_search&utm_source=-VX0SUemRdQ6TmsA9_WLDg", "review_count": 20, "categories": [{"alias": "beer_and_wine", "title": "Beer, Wine & Spirits"}, {"alias": "gourmet", "title": "Specialty Food"}], "rating": 4.5, "coordinates": {"latitude": 38.0310371, "longitude": -78.4790539}, "transactions": [], "price": "$$", "location": {"address1": "311 E Market St", "address2": "", "address3": null, "city": "Charlottesville", "zip_code": "22902", "country": "US", "state": "VA", "display_address": ["311 E Market St", "Charlottesville, VA 22902"]}, "phone": "+14342020511", "display_phone": "(434) 202-0511", "distance": 1527.8801705166688}, {"id": "wVLkhB8ijpUoDRlTejbcNg", "alias": "the-local-charlottesville", "name": "The Local", "image_url": "https://s3-media3.fl.yelpcdn.com/bphoto/UgT96kAoJWS8BGThDqC2dQ/o.jpg", "is_closed": false, "url": "https://www.yelp.com/biz/the-local-charlottesville?adjust_creative=-VX0SUemRdQ6TmsA9_WLDg&utm_campaign=yelp_api_v3&utm_medium=api_v3_business_search&utm_source=-VX0SUemRdQ6TmsA9_WLDg", "review_count": 478, "categories": [{"alias": "newamerican", "title": "American (New)"}, {"alias": "gastropubs", "title": "Gastropubs"}], "rating": 3.5, "coordinates": {"latitude": 38.02446, "longitude": -78.47555}, "transactions": ["delivery"], "price": "$$", "location": {"address1": "824 Hinton Ave", "address2": "", "address3": "", "city": "Charlottesville", "zip_code": "22902", "country": "US", "state": "VA", "display_address": ["824 Hinton Ave", "Charlottesville, VA 22902"]}, "phone": "+14349849749", "display_phone": "(434) 984-9749", "distance": 2272.332551071731}, {"id": "5qNkM1pPktyaQVbQfjZfdw", "alias": "top-shelf-transportation-charlottesville", "name": "Top Shelf Transportation", "image_url": "https://s3-media1.fl.yelpcdn.com/bphoto/OQZ4jEJyaePHPmDokmq18Q/o.jpg", "is_closed": false, "url": "https://www.yelp.com/biz/top-shelf-transportation-charlottesville?adjust_creative=-VX0SUemRdQ6TmsA9_WLDg&utm_campaign=yelp_api_v3&utm_medium=api_v3_business_search&utm_source=-VX0SUemRdQ6TmsA9_WLDg", "review_count": 22, "categories": [{"alias": "winetours", "title": "Wine Tours"}, {"alias": "limos", "title": "Limos"}, {"alias": "beertours", "title": "Beer Tours"}], "rating": 5.0, "coordinates": {"latitude": 38.086855, "longitude": -78.469888}, "transactions": [], "location": {"address1": "1869 Seminole Trl", "address2": "Ste C", "address3": "", "city": "Charlottesville", "zip_code": "22901", "country": "US", "state": "VA", "display_address": ["1869 Seminole Trl", "Ste C", "Charlottesville, VA 22901"]}, "phone": "+14342959462", "display_phone": "(434) 295-9462", "distance": 4728.832737886612}, {"id": "yQ27NzO_Odi1gsjdv-XpfQ", "alias": "charlottesville-transportation-charlottesville", "name": "Charlottesville Transportation", "image_url": "https://s3-media3.fl.yelpcdn.com/bphoto/Di9WTUoKy27TGZpCRSTveQ/o.jpg", "is_closed": false, "url": "https://www.yelp.com/biz/charlottesville-transportation-charlottesville?adjust_creative=-VX0SUemRdQ6TmsA9_WLDg&utm_campaign=yelp_api_v3&utm_medium=api_v3_business_search&utm_source=-VX0SUemRdQ6TmsA9_WLDg", "review_count": 13, "categories": [{"alias": "airport_shuttles", "title": "Airport Shuttles"}, {"alias": "taxis", "title": "Taxis"}, {"alias": "winetours", "title": "Wine Tours"}], "rating": 5.0, "coordinates": {"latitude": 38.0423698425293, "longitude": -78.4617919921875}, "transactions": [], "location": {"address1": null, "address2": null, "address3": "", "city": "Charlottesville", "zip_code": "22901", "country": "US", "state": "VA", "display_address": ["Charlottesville, VA 22901"]}, "phone": "+14344668465", "display_phone": "(434) 466-8465", "distance": 1727.4724472178907}, {"id": "z7yxxO75Jm7GnXlvm3VzyQ", "alias": "wine-warehouse-charlottesville", "name": "Wine Warehouse", "image_url": "https://s3-media1.fl.yelpcdn.com/bphoto/TYBdwU8TYwJy9H_h9DKu_A/o.jpg", "is_closed": false, "url": "https://www.yelp.com/biz/wine-warehouse-charlottesville?adjust_creative=-VX0SUemRdQ6TmsA9_WLDg&utm_campaign=yelp_api_v3&utm_medium=api_v3_business_search&utm_source=-VX0SUemRdQ6TmsA9_WLDg", "review_count": 18, "categories": [{"alias": "beer_and_wine", "title": "Beer, Wine & Spirits"}], "rating": 4.0, "coordinates": {"latitude": 38.0607741, "longitude": -78.4914399}, "transactions": [], "price": "$$", "location": {"address1": "1804 Hydraulic Rd", "address2": null, "address3": "", "city": "Charlottesville", "zip_code": "22901", "country": "US", "state": "VA", "display_address": ["1804 Hydraulic Rd", "Charlottesville, VA 22901"]}, "phone": "+14342961727", "display_phone": "(434) 296-1727", "distance": 2126.272820819516}, {"id": "NnI21y2FU2RQKOWBAWDCzA", "alias": "wine-tours-of-virginia-charlottesville", "name": "Wine Tours of Virginia", "image_url": "", "is_closed": false, "url": "https://www.yelp.com/biz/wine-tours-of-virginia-charlottesville?adjust_creative=-VX0SUemRdQ6TmsA9_WLDg&utm_campaign=yelp_api_v3&utm_medium=api_v3_business_search&utm_source=-VX0SUemRdQ6TmsA9_WLDg", "review_count": 2, "categories": [{"alias": "winetours", "title": "Wine Tours"}], "rating": 1.0, "coordinates": {"latitude": 38.1078147888184, "longitude": -78.6411972045898}, "transactions": [], "location": {"address1": "2591 Pea Ridge Rd", "address2": null, "address3": null, "city": "Charlottesville", "zip_code": "22901", "country": "US", "state": "VA", "display_address": ["2591 Pea Ridge Rd", "Charlottesville, VA 22901"]}, "phone": "+14348232380", "display_phone": "(434) 823-2380", "distance": 15928.429069615073}, {"id": "Ao_d_F2Hb5sAKA2QR9dt8Q", "alias": "monticello-appellation-wine-tours-charlottesville-3", "name": "Monticello Appellation Wine Tours", "image_url": "https://s3-media1.fl.yelpcdn.com/bphoto/PIbczB6rEdtE5UT48Lt1UA/o.jpg", "is_closed": false, "url": "https://www.yelp.com/biz/monticello-appellation-wine-tours-charlottesville-3?adjust_creative=-VX0SUemRdQ6TmsA9_WLDg&utm_campaign=yelp_api_v3&utm_medium=api_v3_business_search&utm_source=-VX0SUemRdQ6TmsA9_WLDg", "review_count": 10, "categories": [{"alias": "winetours", "title": "Wine Tours"}], "rating": 5.0, "coordinates": {"latitude": 37.9990877, "longitude": -78.422138}, "transactions": [], "location": {"address1": "1493 Milton Rd", "address2": "", "address3": null, "city": "Charlottesville", "zip_code": "22902", "country": "US", "state": "VA", "display_address": ["1493 Milton Rd", "Charlottesville, VA 22902"]}, "phone": "+18888247273", "display_phone": "(888) 824-7273", "distance": 7084.393668401764}, {"id": "F7xWtecL4tBV41D2Ykh3aA", "alias": "hamiltons-at-first-and-main-charlottesville-2", "name": "Hamiltons' At First and Main", "image_url": "https://s3-media3.fl.yelpcdn.com/bphoto/laS29UPywsBnBWA0F_H6xA/o.jpg", "is_closed": false, "url": "https://www.yelp.com/biz/hamiltons-at-first-and-main-charlottesville-2?adjust_creative=-VX0SUemRdQ6TmsA9_WLDg&utm_campaign=yelp_api_v3&utm_medium=api_v3_business_search&utm_source=-VX0SUemRdQ6TmsA9_WLDg", "review_count": 226, "categories": [{"alias": "newamerican", "title": "American (New)"}, {"alias": "cocktailbars", "title": "Cocktail Bars"}, {"alias": "wine_bars", "title": "Wine Bars"}], "rating": 4.0, "coordinates": {"latitude": 38.0308619141579, "longitude": -78.4815812855959}, "transactions": ["delivery", "pickup"], "price": "$$", "location": {"address1": "101 W Main St", "address2": "", "address3": "", "city": "Charlottesville", "zip_code": "22902", "country": "US", "state": "VA", "display_address": ["101 W Main St", "Charlottesville, VA 22902"]}, "phone": "+14342956649", "display_phone": "(434) 295-6649", "distance": 1572.111966760781}, {"id": "taw2SaANYLc2aHEX8aOehQ", "alias": "wegmans-wine-and-beer-charlottesville-2", "name": "Wegmans Wine & Beer", "image_url": "https://s3-media2.fl.yelpcdn.com/bphoto/0_ezMiBXElu2I6N2RQn5dQ/o.jpg", "is_closed": false, "url": "https://www.yelp.com/biz/wegmans-wine-and-beer-charlottesville-2?adjust_creative=-VX0SUemRdQ6TmsA9_WLDg&utm_campaign=yelp_api_v3&utm_medium=api_v3_business_search&utm_source=-VX0SUemRdQ6TmsA9_WLDg", "review_count": 1, "categories": [{"alias": "beer_and_wine", "title": "Beer, Wine & Spirits"}], "rating": 5.0, "coordinates": {"latitude": 38.00997, "longitude": -78.49927}, "transactions": [], "location": {"address1": "100 Wegmans Way", "address2": null, "address3": null, "city": "Charlottesville", "zip_code": "22902", "country": "US", "state": "VA", "display_address": ["100 Wegmans Way", "Charlottesville, VA 22902"]}, "phone": "+14345293285", "display_phone": "(434) 529-3285", "distance": 4466.111060185956}, {"id": "LZbSe-peqgynuLoUaCI5Wg", "alias": "wineworks-extended-charlottesville", "name": "Wineworks Extended", "image_url": "https://s3-media2.fl.yelpcdn.com/bphoto/BwtyWxUgnJUeeYxkwSr4EA/o.jpg", "is_closed": false, "url": "https://www.yelp.com/biz/wineworks-extended-charlottesville?adjust_creative=-VX0SUemRdQ6TmsA9_WLDg&utm_campaign=yelp_api_v3&utm_medium=api_v3_business_search&utm_source=-VX0SUemRdQ6TmsA9_WLDg", "review_count": 7, "categories": [{"alias": "winetastingroom", "title": "Wine Tasting Room"}], "rating": 3.5, "coordinates": {"latitude": 38.00821, "longitude": -78.491042}, "transactions": [], "location": {"address1": "1585 Avon Street Ext", "address2": "", "address3": null, "city": "Charlottesville", "zip_code": "22902", "country": "US", "state": "VA", "display_address": ["1585 Avon Street Ext", "Charlottesville, VA 22902"]}, "phone": "+14345296848", "display_phone": "(434) 529-6848", "distance": 4224.043800662903}, {"id": "t5ZTKNJggq-U0vt9Qk41Wg", "alias": "blue-ridge-wine-excursions-charlottesville", "name": "Blue Ridge Wine Excursions", "image_url": "https://s3-media2.fl.yelpcdn.com/bphoto/FN7guN_GiU259HDn7FSpEg/o.jpg", "is_closed": false, "url": "https://www.yelp.com/biz/blue-ridge-wine-excursions-charlottesville?adjust_creative=-VX0SUemRdQ6TmsA9_WLDg&utm_campaign=yelp_api_v3&utm_medium=api_v3_business_search&utm_source=-VX0SUemRdQ6TmsA9_WLDg", "review_count": 6, "categories": [{"alias": "tours", "title": "Tours"}], "rating": 4.0, "coordinates": {"latitude": 38.03563, "longitude": -78.4948}, "transactions": [], "location": {"address1": "", "address2": null, "address3": "", "city": "Charlottesville", "zip_code": "22903", "country": "US", "state": "VA", "display_address": ["Charlottesville, VA 22903"]}, "phone": "+14345315802", "display_phone": "(434) 531-5802", "distance": 1727.4724472178907}]